Site,1km_square,bog,broadleaf,built,conifer,dwarf,rough,river,people_km2,grassland,lat,long,year,bait
Aberdelghy Golf Course,J 2866,0,0.043983,0.141624,0.048968,0.034535,0.079661,3749.843682,27.0499,0.7256,54.52619968,-6.023733614,1,sunflower and peanuts
Aghadulla,H 3667,0,0.084209,0.009177,0.14005,0,0.26513,4754.587114,26.5327,0.766565,54.55005786,-7.444421272,1,sunflower and peanuts
Aghagrefin,H 1866,0,0.021764,0.010023,0.538065,0,0.095541,1523.491253,82.968149,0.430149,54.54203317,-7.722640076,1,sunflower and peanuts
Aghamakane wood,J 0223,0,0.000888,0,0.189591,0.437964,0.214992,1500.129955,12.8882,0.367895,54.14594917,-6.43982139,1,sunflower and peanuts
Aghavoory,H 4545,0.023991,0.282557,0,0.144764,0.008557,0.124567,531.376227,21.4946,0.535856,54.35172015,-7.308689007,1,sunflower and peanuts
Alderwood,H 4745,0,0.097032,0,0.542961,0.005026,0.188077,4207.544557,1464.209291,0.354981,54.35153998,-7.277933571,1,sunflower and peanuts
Altmore,H 6667,0.119289,0.055898,0,0.441244,0.126081,0.206748,1696.183387,45.1691,0.250725,54.54703972,-6.980878805,1,sunflower and peanuts
Altnarichard 1,D 1129,0.784957,0,0,0.030215,0.162536,0,3232.228131,19.453751,0.022292,55.09586342,-6.262040557,1,sunflower and peanuts
Annagarrif/peatlands,H 9061,0.199923,0.419401,0.021037,0.012632,0.008228,0.078977,0,1710.549841,0.326115,54.48946336,-6.611951449,1,sunflower and peanuts
Annalong,J 3522,0,0.022177,0.041243,0.193477,0.160711,0.180756,2633.787409,154.717499,0.582391,54.12936981,-5.935581913,1,sunflower and peanuts
Ardmore,C 4713,0,0.136396,0.048075,0.008725,0.005775,0,3429.256185,38.281601,0.801029,54.962336,-7.267015542,1,sunflower and peanuts
Ardress House ,H 9555,0,0,0.004179,0.005131,0,0.06725,1479.248291,29.994499,0.980929,54.4346706,-6.536747634,1,sunflower and peanuts
Ashbrooke House,C 4614,0,0.096542,0.317041,0.007687,0.002281,0,4565.389719,33.91725,0.576449,54.97141099,-7.282465405,1,sunflower and peanuts
Ashmenagh mountain,H 5277,0.030058,0.159537,0.015229,0.190643,0.008934,0.314064,1051.561713,22.685201,0.593817,54.63849147,-7.195418434,1,sunflower and peanuts
Aughentaine,H 4651,0,0.090484,0.011743,0.201194,0,0.096779,3850.230558,15.211406,0.696579,54.40552755,-7.292384421,1,sunflower and peanuts
Backaderry wood ,J 3339,0,0.031137,0,0.17688,0.146764,0.165974,4876.271525,26.209299,0.645219,54.28251665,-5.958640613,1,sunflower and peanuts
Ballinarees,C 8029,0,0.022318,0.042519,0.106597,0.08855,0.104422,0,9.26092,0.729877,55.10182404,-6.747472289,1,sunflower and peanuts
Ballintemple,J 0322,0,0.153924,0.006394,0.338144,0.045617,0.109036,0,27.889734,0.455921,54.13676951,-6.424865579,1,sunflower and peanuts
Ballybogey,C 9039,0,0.030681,0.010389,0.018147,0,0,2651.14836,3007.106764,0.940783,55.18990823,-6.587693048,1,sunflower and peanuts
Ballyboley,J 3099,0.000085,0.008311,0.021724,0.580693,0.056668,0.172399,7765.169131,16.149199,0.243416,54.8219465,-5.978190932,1,sunflower and peanuts
Ballyedmund House ,J 2014,0,0.161953,0.185118,0.050965,0.033268,0.106017,976.929644,32.19685,0.51717,54.06125189,-6.168075806,1,sunflower and peanuts
Ballygudden Road,C 5319,0,0.026272,0.021289,0,0,0,1690.570563,23.111799,0.944815,55.01562467,-7.172248591,1,sunflower and peanuts
Ballykelly Forest,C 6021,0,0.167894,0,0.134437,0,0.091894,2940.060962,14.16685,0.697669,55.03279347,-7.062419639,1,sunflower and peanuts
Ballykelly River,C 6220,0,0.129667,0.018333,0.029544,0.044502,0.020118,4061.980396,42.315,0.777954,55.02356728,-7.031363511,1,sunflower and peanuts
Ballylough,C 9536,0,0.101429,0.026741,0.135649,0.121647,0.039511,2429.605995,36.157249,0.613684,55.1620363,-6.510224035,1,sunflower and peanuts
Ballynahone bog 1,H 8698,0.307484,0.264014,0,0,0.007865,0.096206,1398.324349,23.894401,0.420636,54.82243822,-6.662785681,1,sunflower and peanuts
Ballynahone bog 2,H 8598,0.374768,0.258236,0,0,0.032327,0.042175,0,63.999433,0.334668,54.82260861,-6.678338775,1,sunflower and peanuts
Ballypatrick,D 1736,0.234248,0,0,0.740878,0.003938,0,2401.569013,13.4312,0.020936,55.15733048,-6.165227825,1,sunflower and peanuts
"Ballyportery Rd, Scroogs",D 0522,0,0,0.021025,0,0.022458,0.054836,2099.148826,485.524767,0.956517,55.03431699,-6.358556026,1,sunflower and peanuts
Ballywalter,J 6168,0,0.03121,0.026069,0.208124,0.032407,0.000027,2795.48216,129.24255,0.70219,54.53475049,-5.513420997,1,sunflower and peanuts
Ballywhite,J 5752,0,0.095942,0.027382,0.02439,0,0.111707,0,45.3969,0.827717,54.39240012,-5.583637121,1,sunflower and peanuts
Ballywillwill House,J 3540,0,0.039462,0.080341,0.036294,0.095101,0.177404,811.92927,98.486032,0.736088,54.29097072,-5.92750344,1,sunflower and peanuts
Balmoral,J 3270,0,0.052365,0.796311,0.045017,0.024462,0,0,69.6768,0.081846,54.56108457,-5.96020324,1,sunflower and peanuts
Banagher Glen,C 6901,0.033452,0,0,0.661138,0.138826,0.008517,5826.943316,92.581798,0.166584,54.85200748,-6.926493939,1,sunflower and peanuts
Bashford's land wood,J 4190,0,0.02738,0.138878,0.04297,0.041221,0.205604,962.728624,18.1362,0.749551,54.73818982,-5.811553547,1,sunflower and peanuts
Belle Isle,H 2935,0,0.136188,0.007021,0.013037,0.035006,0.09363,1823.607694,39.120201,0.757386,54.26304669,-7.555712535,1,sunflower and peanuts
Belmore forest/Pollingllum caves,H 1143,0,0.077827,0.018144,0.33685,0.070584,0.087322,3030.029477,70.462097,0.496595,54.33561708,-7.831643653,1,sunflower and peanuts
Belvoir Golf Club ,J 3470,0,0.118023,0.329508,0.144216,0.020496,0,1532.820248,30.4153,0.350128,54.56055952,-5.92930814,1,sunflower and peanuts
Belvoir Park Forest,J 3370,0,0.116091,0.442898,0.133581,0.045954,0,1811.40915,76.885174,0.242971,54.56082303,-5.944755566,1,sunflower and peanuts
Ben Vista,D 0822,0,0,0.051948,0,0.047395,0.047148,839.532934,74.698133,0.900656,55.03367525,-6.311658535,1,sunflower and peanuts
Benburb,H 8151,0,0.104212,0.038222,0.024919,0,0.004352,4158.511644,40.493649,0.820634,54.40116628,-6.753524171,1,sunflower and peanuts
Ben's Hill,J 3942,0,0.061927,0.024408,0.073502,0.017992,0.476936,1729.234142,32.1832,0.812331,54.30785434,-5.865191324,1,sunflower and peanuts
Benvardin,C 9431,0.216768,0.016343,0,0.382318,0.034642,0,2182.086477,39.0675,0.344421,55.11733037,-6.527562435,1,sunflower and peanuts
Big Gortagole,C 9605,0,0.200736,0.003425,0.022012,0.156626,0.034316,4068.375973,24.816799,0.55497,54.88348241,-6.504940391,1,sunflower and peanuts
Big wood/Narrowwater ,J 1120,0,0.547927,0.073401,0.144861,0.022379,0,0,91.377502,0.112461,54.11714622,-6.303258764,1,sunflower and peanuts
Binevenagh,C 6931,0.013417,0.296807,0.033977,0.353213,0.046692,0.18979,531.74792,125.112731,0.248106,55.12143566,-6.919276541,1,sunflower and peanuts
Blackrock Wood,H 4183,0,0.096651,0.010128,0.008033,0,0.032832,4183.824251,29.143299,0.885188,54.69339851,-7.364922827,1,sunflower and peanuts
Bohill Forest,J 3946,0,0.067282,0.028722,0.280839,0.10323,0.224654,632.686366,62.568901,0.519928,54.34376341,-5.863329857,1,sunflower and peanuts
Bolies wood,C 4215,0,0.024045,0.489519,0.0624,0,0,910.175332,20.590099,0.410201,54.98074555,-7.344773996,1,sunflower and peanuts
Boorin Wood,H 5085,0,0.123401,0.008449,0.010128,0,0.094597,5923.923813,10.6803,0.858023,54.71055071,-7.225021589,1,sunflower and peanuts
Bracknamuckley,C 9705,0,0.181989,0.037575,0.027955,0.019083,0.033977,5104.842909,14.64766,0.715073,54.88328965,-6.489365032,1,sunflower and peanuts
Bradkeel Forest,H 5093,0.076483,0.204337,0.008762,0.153274,0.125713,0.231278,3967.759985,50.4328,0.431432,54.78240721,-7.223647646,1,sunflower and peanuts
Breen pine wood,D 1233,0.139937,0.122772,0,0.466796,0.206054,0.027412,1030.457131,4.73723,0.064441,55.13155146,-6.244810174,1,sunflower and peanuts
Bristow Park,J 3169,0,0.020563,0.641389,0.02996,0.073135,0,297.037094,567.6286,0.225402,54.55236658,-5.976095992,1,sunflower and peanuts
Brockagh mountain,C 5314,0.192918,0.038008,0.016442,0.396941,0,0,164.128178,47.814751,0.350017,54.97071676,-7.173172828,1,sunflower and peanuts
Brockagh road,C 5216,0,0.035465,0.113168,0.022156,0.005991,0.046786,4638.2756,41.735,0.823219,54.98878522,-7.188423345,1,sunflower and peanuts
Brollagh,H 9455,0,0.005312,0.015856,0,0,0.033499,2428.839964,11.3833,0.978832,54.43485627,-6.552152666,1,sunflower and peanuts
"Bunker hill, Donnybrewer",C 5021,0,0.114296,0.179171,0.100571,0.020131,0.05042,1807.82647,154.438932,0.578236,55.033898,-7.218790564,1,sunflower and peanuts
Burn Dennett area,C 4304,0,0.196613,0.005055,0.024805,0,0,3277.456576,184.126007,0.773526,54.88185843,-7.330799864,1,sunflower and peanuts
Cairns wood/Ballysallagh,J 4577,0,0.114789,0.008758,0.249167,0.072722,0.046886,0,9.0465,0.554564,54.62036449,-5.755950073,1,sunflower and peanuts
Cam Forest,C 7821,0,0.050047,0,0.515573,0.170061,0.132297,0,42.803651,0.264319,55.03029921,-6.780982721,1,sunflower and peanuts
Cam Forest 02,C 7523,0,0.02942,0,0.690883,0.047223,0.061084,3375.943153,115.996902,0.232473,55.04872124,-6.82736104,1,sunflower and peanuts
Camlough,J 0525,0,0.02346,0,0.230125,0.370569,0.044316,1330.48964,22.03915,0.375847,54.163306,-6.39323578,1,sunflower and peanuts
Capanagh wood,D 2904,0.34957,0.014557,0,0.629678,0.000004,0,2401.007722,23.315201,0.006192,54.86709069,-5.991509082,1,sunflower and peanuts
Capecastle,D 0737,0.008863,0.026768,0,0.099619,0.001628,0.015664,4951.412267,32.04275,0.863122,55.16856888,-6.321654506,1,sunflower and peanuts
Carnagh,H 8229,0.106361,0.300209,0,0.297045,0.002701,0.035836,3.9912,41.324126,0.25369,54.20341602,-6.744161454,1,sunflower and peanuts
Carndaisy Glen,H 8385,0,0.162641,0.000048,0,0.006232,0.029358,1712.157944,18.5228,0.831079,54.70619583,-6.713156384,1,sunflower and peanuts
Carnduff Thompson,D 4000,0,0.133753,0.02549,0.041143,0.029051,0.149244,0,28.797851,0.64807,54.82823247,-5.82224672,1,sunflower and peanuts
Carrick River,C 6818,0,0.014164,0.050205,0,0,0.138057,7521.539583,4811.89712,0.92812,55.00482243,-6.938043876,1,sunflower and peanuts
Carrickastickan,J 0117,0,0.016558,0.026202,0,0.040746,0.117977,2386.597825,12.1976,0.916494,54.09226314,-6.457121889,1,sunflower and peanuts
Carrickyheenan Forest/Bonnisnagable,H 4338,0.076742,0.212681,0.006494,0.228193,0.047587,0.191991,2306.787511,29.143299,0.421891,54.28901201,-7.340451935,1,sunflower and peanuts
Carrowhony,H 3039,0,0.021433,0.006854,0,0.010999,0.05993,1591.024425,32.1395,0.955431,54.29892229,-7.539966656,1,sunflower and peanuts
Cashel wood,H 6583,0.271534,0.035611,0.015789,0.382956,0.008087,0.072984,2624.140243,4091.608609,0.27639,54.69087599,-6.992784,1,sunflower and peanuts
Castle Coole,H 2643,0,0.239096,0.008452,0.020349,0.001873,0,4787.805414,264.033997,0.73023,54.33507437,-7.601054259,1,sunflower and peanuts
Castle Coole 2014,H 2642,0,0.118955,0.03962,0.01996,0,0,3303.876477,4093.191135,0.821465,54.32609108,-7.601141279,1,sunflower and peanuts
Castle Dillan,H 9147,0,0.03503,0.041047,0.012196,0.033056,0.0532,1370.40476,13.43561,0.865946,54.36355576,-6.600817108,1,sunflower and peanuts
Castlecaldwell,H 0160,0,0.378507,0.019868,0.172773,0,0,676.391471,44.810001,0.406767,54.48845164,-7.985316965,1,sunflower and peanuts
Castleward,J 5748,0,0.016641,0.014852,0.211468,0,0.024784,0,29.994499,0.757039,54.35649831,-5.585745848,1,sunflower and peanuts
Castlewellan,J 3237,0,0.027268,0.001124,0.763303,0.104168,0.028084,0,111.760575,0.037257,54.26481959,-5.974865186,1,sunflower and peanuts
Castlewoods,J 4037,0,0.004161,0.030031,0.01336,0.010513,0.06491,196.784527,48.1938,0.941811,54.26269528,-5.852177324,1,sunflower and peanuts
Church Wood,H 7452,0,0.028145,0.014158,0.007955,0,0.02141,2538.174352,12.5006,0.949741,54.41121245,-6.861035126,1,sunflower and peanuts
Clabby,H 4151,0,0.12044,0,0.166184,0.011992,0.188298,355.240543,57.883801,0.701385,54.40595433,-7.369374801,1,sunflower and peanuts
Cladagh Glen,H 1235,0,0.172421,0.039376,0.023713,0.011645,0.277559,2500.641656,133.436305,0.749699,54.26372655,-7.81659117,1,sunflower and peanuts
Clandeboye,J 4877,0,0.308886,0.008801,0.32062,0.165179,0.055933,0,75.3032,0.185151,54.6194951,-5.709546764,1,sunflower and peanuts
Clare Glen,J 0143,0,0.205806,0.021222,0,0.019261,0.050844,4153.284296,27.500051,0.740299,54.32575382,-6.448392339,1,sunflower and peanuts
Clare Wood,D 0642,0.014146,0.020455,0.012354,0.136011,0.134482,0.135314,1096.09752,44.209366,0.682552,55.21367603,-6.335467958,1,sunflower and peanuts
Clare Wood 2,D 0741,0.223585,0.008464,0,0.597347,0.006031,0.011829,2267.390426,19.773899,0.164574,55.20448236,-6.320143503,1,sunflower and peanuts
Clarkhill,J 4394,0,0.000923,0.003573,0,0,0.033406,2159.087434,39.140167,0.995505,54.77353007,-5.778560671,1,sunflower and peanuts
Claudy CP,C 5406,0,0.065046,0.005585,0.007408,0.000025,0.293095,1589.822881,4038.855533,0.921936,54.89875649,-7.159061246,1,sunflower and peanuts
Clements wood,J 3497,0,0.05036,0.037217,0,0.022968,0.195887,5271.518992,19.703699,0.877413,54.80294057,-5.91692789,1,sunflower and peanuts
Clocnaboghill,H 4632,0,0.223088,0,0.250889,0.01123,0.191198,5399.702634,12.8319,0.449585,54.2348536,-7.295308939,1,sunflower and peanuts
Cloghcor Hill,H 5248,0,0.104554,0.032119,0.388631,0,0.32777,5187.795058,18.25745,0.467193,54.37800302,-7.200523089,1,sunflower and peanuts
Clonturkle,H 2328,0,0.095056,0.046179,0,0.078441,0.120382,0,36.013733,0.667172,54.20046669,-7.648321621,1,sunflower and peanuts
Cloonty Wood,H 3680,0,0,0.00891,0.777552,0.028535,0.076485,1494.534861,17.2966,0.185003,54.66683254,-7.442827632,1,sunflower and peanuts
Coagh Wood/Ely Lodge block,H 2047,0,0.032835,0.012925,0.06809,0.006764,0,3380.573996,20.16,0.826287,54.3712777,-7.693021024,1,sunflower and peanuts
Cold Brae,H 9527,0.283857,0.071882,0.014405,0.369179,0.009706,0.026228,1224.308393,1306.4935,0.239145,54.18321311,-6.545644201,1,sunflower and peanuts
Colebrooke estate,H 3845,0.006173,0.073645,0.007381,0,0.073292,0.065625,4260.693942,116.580699,0.839509,54.35228903,-7.416335542,1,sunflower and peanuts
Colin Glen,J 2870,0,0.048002,0.757429,0,0.058625,0,3074.522267,9.1005,0.135943,54.56211102,-6.021996387,1,sunflower and peanuts
Coolaveely 2,D 1337,0,0.015991,0,0.050748,0.006615,0,6458.832076,37.684949,0.926646,55.16723663,-6.227548391,1,sunflower and peanuts
Coolnasilagh Forest,H 4232,0.003293,0.136316,0.016806,0.235367,0,0.180584,3283.589843,36.916349,0.608217,54.23519679,-7.356646709,1,sunflower and peanuts
Cooltrain wood,H 2834,0,0.351301,0,0,0.040113,0.039529,0,44.007648,0.547029,54.25411894,-7.571151311,1,sunflower and peanuts
Copeland Reservoir,J 4292,0,0.073601,0.007536,0.204262,0.026094,0.033837,2879.552778,48.5919,0.688506,54.75586115,-5.795064371,1,sunflower and peanuts
Corcloghy/Beagh ,H 5646,0.056959,0.101289,0.037552,0.445739,0.02342,0.320097,4714.092599,26.526307,0.335041,54.35961471,-7.139350803,1,sunflower and peanuts
Corfracloghy,J 0414,0,0.041417,0.039073,0.286147,0.087174,0.070635,0,3732.20956,0.546188,54.06472521,-6.412319882,1,sunflower and peanuts
Corlatt Wood,H 3523,0.076998,0.672302,0,0.019033,0,0.128018,123.407432,243.835603,0.205947,54.15487243,-7.46503655,1,sunflower and peanuts
Cornakessagh/Lisneaskea forest,H 4041,0,0.211775,0,0.227972,0.014487,0.276059,1662.252169,5.64027,0.545765,54.31620435,-7.386114807,1,sunflower and peanuts
Corragunt Forest,H 5138,0.060293,0.207603,0.01786,0.092413,0.06934,0.469139,2703.927019,52.353901,0.547142,54.28827735,-7.217618336,1,sunflower and peanuts
Corralea/Braneen,H 0440,0,0.181979,0.051445,0.072241,0.159663,0.208353,0,61.182301,0.530794,54.30876901,-7.939293904,1,sunflower and peanuts
Correl glen ,H 0754,0,0.242205,0.022679,0.109848,0.444195,0.136629,2619.213199,266.724899,0.160942,54.43450489,-7.892877258,1,sunflower and peanuts
Cottage hill,H 6751,0,0.05832,0.023473,0.000907,0.039443,0.00003,1393.357569,1404.548648,0.867265,54.40319925,-6.969050712,1,sunflower and peanuts
Craigs wood,C 9917,0.613693,0.013802,0,0.353005,0,0,2429.425615,43.14975,0.0195,54.99065022,-6.454085286,1,sunflower and peanuts
Cranny Falls,D 2718,0,0,0.009161,0.045524,0.146304,0.057454,3573.178401,140.94725,0.774823,54.99328311,-6.016461216,1,sunflower and peanuts
Cregagh Glen,H 3670,0.800157,0.148579,0,0,0.012086,0.039178,2068.269392,58.792,0.039178,54.57700607,-7.444054523,1,sunflower and peanuts
Creggan,H 6179,0.424065,0.005921,0.01708,0.552602,0,0,1301.795745,34.604185,0.000332,54.65544866,-7.055637333,1,sunflower and peanuts
Creightons wood,J 4278,0,0.04924,0,0.094892,0.095436,0.152479,0,24.3471,0.66205,54.63019255,-5.801871613,1,sunflower and peanuts
Crievehill quarry,H 4048,0.019761,0.101518,0,0.046523,0,0.090961,575.486062,2888.246588,0.630769,54.3790851,-7.385176394,1,sunflower and peanuts
Crocknafeola,J 2722,0,0.027916,0.008938,0.286338,0.24453,0.359329,2141.306851,189.310001,0.432278,54.13140607,-6.057881737,1,sunflower and peanuts
Cronghill,H 7153,0,0.022048,0.007333,0.171984,0.046008,0.138999,2796.794339,89.803748,0.735024,54.42062115,-6.906991118,1,sunflower and peanuts
Cullenfhad  ?,H 7360,0,0.141695,0.083496,0.11912,0,0.00713,2599.192553,32.6539,0.655688,54.48320954,-6.874463627,1,sunflower and peanuts
Cullion,H 4781,0,0.060149,0.03923,0.015212,0,0.113443,3498.305099,43.0005,0.88541,54.67491049,-7.272204535,1,sunflower and peanuts
Curragh wood/ Kesh,H 1264,0,0.212184,0.004929,0.376423,0,0.01444,0,94.8245,0.351979,54.52424415,-7.815423169,1,sunflower and peanuts
Curryfree,C 4310,0,0.026126,0.005208,0,0.01704,0.009374,2951.217896,788.478543,0.933889,54.9357506,-7.329904815,1,sunflower and peanuts
Darkley,H 8630,0.010346,0.257427,0.007961,0.315774,0,0.039938,3426.734345,94.431202,0.403907,54.21174276,-6.682596367,1,sunflower and peanuts
Davagh 1,H 7086,0.073841,0.014081,0.001722,0.886347,0.005632,0,3615.690021,27.4863,0.007177,54.71715068,-6.914543618,1,sunflower and peanuts
Davagh 3,H 7384,0.119283,0.009328,0.022402,0.251824,0.199476,0.169185,408.831652,9.71762,0.262118,54.69876249,-6.868502202,1,sunflower and peanuts
Derrandoran ,H 3576,0.482119,0.050774,0,0,0.057781,0,1712.166767,119.409668,0.363009,54.63097234,-7.458802568,1,sunflower and peanuts
Derriaghy glen,H 2968,0.900872,0.092623,0,0.000691,0.0042,0.001614,1228.261267,8.87872,0.001614,54.55948945,-7.552493341,1,sunflower and peanuts
Derrycourtney Forest,H 7246,0,0.123096,0,0.013805,0,0.008864,0,18.0791,0.856586,54.35760857,-6.893283111,1,sunflower and peanuts
Derrycrain,H 9178,0.003349,0.039183,0.086308,0.43901,0,0,0,15.5387,0.432149,54.6419528,-6.591269604,1,sunflower and peanuts
Derryhoney,H 3241,0,0.068792,0,0.060659,0,0.00618,197.711506,159.088271,0.870548,54.31676756,-7.509035338,1,sunflower and peanuts
Derryleckagh Forest,J 1225,0,0.063482,0.034073,0.00613,0.021656,0.039768,1968.554013,82.434333,0.631533,54.16182855,-6.286119904,1,sunflower and peanuts
Derrylin wood,H 2627,0,0.32191,0.036269,0.04706,0.034496,0.173181,5066.990641,28.94405,0.560267,54.19134012,-7.602440875,1,sunflower and peanuts
Derrymean,H 4329,0,0.076478,0.005637,0,0,0.059221,4190.656954,79.823799,0.917884,54.20816469,-7.341741195,1,sunflower and peanuts
Derrynoyd,H 7695,0,0.368974,0,0.03959,0,0.115261,3389.944832,77.877502,0.568347,54.79710988,-6.819110062,1,sunflower and peanuts
Dooneen Forest,H 3753,0,0.055599,0,0.335372,0.093552,0.368156,2333.474923,5.92281,0.515477,54.42422629,-7.430719456,1,sunflower and peanuts
Downhill,C 7535,0,0.202827,0.041695,0.323508,0.000352,0.110359,4873.429873,45.7159,0.418555,55.15648685,-6.824200382,1,sunflower and peanuts
Dreenan,H 2086,0.157783,0.117223,0,0.322133,0.174788,0.226173,1350.543052,24.2707,0.228074,54.7216168,-7.690376387,1,sunflower and peanuts
Dromantine,J 0835,0,0.114222,0.009633,0.035037,0,0.106233,2235.29519,19.4545,0.789767,54.2524839,-6.343737914,1,sunflower and peanuts
Drum manor,H 7677,0,0.221163,0.014162,0.197726,0,0,1693.440061,35.818199,0.560871,54.63545137,-6.823800892,1,sunflower and peanuts
Drumany Kesh,H 1767,0,0.058447,0,0.495489,0,0.341147,2975.425542,19.47635,0.446064,54.55105074,-7.738032685,1,sunflower and peanuts
Drumbanagher,J 0537,0,0.040089,0.007256,0.022181,0.023815,0.170742,1256.854012,59.292032,0.887443,54.27106759,-6.389045133,1,sunflower and peanuts
Drumcairne,H 8770,0,0.368723,0,0.101088,0,0.038902,490.913372,34.986599,0.530189,54.57081269,-6.655575862,1,sunflower and peanuts
Drumkeeran,H 2067,0,0,0,0.307514,0.007305,0.20186,2597.291309,18.17355,0.685182,54.55094134,-7.691671897,1,sunflower and peanuts
Dunlade Glebe,C 5616,0.334783,0.108191,0.006593,0.021675,0.183583,0,978.547487,304.31118,0.345174,54.98835216,-7.125944358,1,sunflower and peanuts
Dunmoyle,H 6162,0.255804,0.020679,0.050758,0.28493,0.058483,0.112515,4417.898671,43.2628,0.208294,54.50275605,-7.059163097,1,sunflower and peanuts
Dunmurry,J 2868,0,0.069901,0.689096,0.042509,0.026028,0,5325.130226,246.492069,0.172466,54.54415538,-6.022865479,1,sunflower and peanuts
Dunmurry Golf Club,J 3068,0,0.086756,0.247485,0.06761,0.05947,0,0,16.4356,0.515599,54.54364644,-5.99198197,1,sunflower and peanuts
Edenegan,H 3358,0,0.025809,0,0.266063,0,0.119971,2180.994869,369.329897,0.708128,54.46941604,-7.491784872,1,sunflower and peanuts
Edenmore,H 3159,0,0.040957,0,0.176335,0,0.391021,3564.879978,27.5225,0.782709,54.47852487,-7.52252515,1,sunflower and peanuts
Ely Lodge,H 1851,0,0.734211,0.046342,0.123523,0,0,0,48.85515,0.056208,54.40728537,-7.723551367,1,sunflower and peanuts
Enagh Lough,C 4619,0,0.211082,0.146551,0.030189,0,0,0,38.740898,0.479244,55.01632004,-7.281663254,1,sunflower and peanuts
Errigal Glen,C 8114,0.068263,0.147941,0.026697,0,0.117666,0.112518,3267.559184,7.47353,0.639432,54.96695802,-6.736059459,1,sunflower and peanuts
Errigal Wood,H 5758,0.027315,0.124899,0,0.177909,0.006723,0.110231,2963.030409,24.861543,0.663155,54.46729197,-7.121668696,1,sunflower and peanuts
Ervey,C 5010,0,0.248377,0.100156,0,0,0.035495,4908.237426,50.355349,0.651467,54.93509933,-7.220707717,1,sunflower and peanuts
"Essbeagh, Ballinamallard",H 2951,0,0.116408,0.016228,0.006985,0.023142,0.093019,1850.701407,21.660933,0.837235,54.40677836,-7.554158999,1,sunflower and peanuts
"Faughanvale, Greysteel",C 5720,0,0.088487,0.04969,0.003272,0,0.363777,3824.541896,18.633699,0.84917,55.02416454,-7.10952902,1,sunflower and peanuts
Favour Royal,H 6253,0,0.095227,0.002872,0.218989,0.015293,0.070087,2336.459434,40.472,0.666169,54.42179639,-7.045613296,1,sunflower and peanuts
Feeney,C 6315,0.427164,0.059136,0,0.347795,0,0,4255.217891,107.428801,0.165905,54.9785359,-7.016829987,1,sunflower and peanuts
Fews 1,H 9133,0.135651,0.141963,0.026637,0.522866,0,0.05429,1035.509195,28.629,0.172884,54.23782345,-6.605075886,1,sunflower and peanuts
Fews 2,H 8930,0,0.023484,0.028854,0.223905,0.03116,0.099187,0,27.293501,0.673195,54.21123121,-6.636628609,1,sunflower and peanuts
Fintona,H 4460,0,0.010362,0.099691,0.364268,0,0.116256,3711.855451,94.443398,0.516467,54.4865485,-7.321845063,1,sunflower and peanuts
Flagstaff woods,J 1021,0,0.437026,0.008903,0.033608,0.0276,0.071481,1106.383822,12.8319,0.326037,54.12634076,-6.318180377,1,sunflower and peanuts
Fofanny Dam,J 2828,0,0,0,0.072185,0.152186,0.032349,3995.915562,118.432152,0.736753,54.1850294,-6.040048318,1,sunflower and peanuts
Galloon Island,H 3921,0,0.146423,0,0,0.037533,0,0,11.691833,0.729713,54.13661811,-7.404074514,1,sunflower and peanuts
Garranard,J 3875,0,0.038322,0.689706,0.081373,0.066262,0,3271.178271,652.682532,0.124336,54.60437026,-5.865174365,1,sunflower and peanuts
Garrison Glebe,H 2669,0,0.151099,0,0.207931,0.221253,0.27647,4444.483267,40.645766,0.419717,54.56863513,-7.598774884,1,sunflower and peanuts
Garron Tower,D 2922,0,0.045954,0.038794,0.015968,0.00772,0.106906,3897.554862,315.936445,0.858316,55.02867741,-5.983432021,1,sunflower and peanuts
Garry Bog,C 9529,0.070146,0,0,0.668519,0,0,0,31.318701,0.261335,55.09918134,-6.512563569,1,sunflower and peanuts
Garvagh,C 8216,0,0.107797,0,0.431514,0.024003,0.119115,1246.804781,4.0467,0.429837,54.98475533,-6.719878849,1,sunflower and peanuts
Gilford,J 0747,0,0.093556,0.054301,0.036502,0.008202,0.268163,3278.00499,2413.413985,0.771799,54.36045186,-6.354779774,1,sunflower and peanuts
Glack wood ,H 4738,0,0.277566,0.006321,0.183921,0,0.375358,4217.061518,39.2304,0.532192,54.28866032,-7.279034447,1,sunflower and peanuts
Glack Wood/Jenkin,H 4641,0,0.240299,0,0.457733,0,0.129195,3411.905676,4.73723,0.301918,54.31569977,-7.293927437,1,sunflower and peanuts
Glenanne,H 9733,0,0.033504,0.088237,0.021074,0,0.001479,3033.838926,26.1082,0.690113,54.23672332,-6.513086982,1,sunflower and peanuts
Glenarm,D 3011,0,0.119165,0,0.047534,0.068045,0.02186,3984.33583,24.5145,0.765255,54.92967146,-5.972788635,1,sunflower and peanuts
Glenarm 2,D 2910,0,0.001715,0.027057,0.239568,0.035586,0.057799,128.227768,434.334991,0.696075,54.9209535,-5.988825696,1,sunflower and peanuts
Glenarrif,D 1821,0.207699,0.056364,0,0.580443,0.115327,0,3720.770537,12.5006,0.040167,55.02242786,-6.155760004,1,sunflower and peanuts
Glencunny,H 1941,0,0.067302,0.011194,0.203141,0,0.010524,4085.471692,35.6563,0.718363,54.31741567,-7.708788791,1,sunflower and peanuts
Glendesha,H 9916,0,0.383143,0.001955,0.078277,0.031679,0.182002,988.769876,35.7106,0.504945,54.08367047,-6.488003462,1,sunflower and peanuts
Glendesha 2,H 9917,0,0.235667,0.086614,0.13086,0.06406,0.214351,0,15.0852,0.482798,54.0926512,-6.487676772,1,sunflower and peanuts
Glendun,D 2031,0.016122,0.011062,0,0.024432,0.631936,0.065898,9031.847637,40.296749,0.316448,55.11172584,-6.120302398,1,sunflower and peanuts
Glengawna,H 4779,0,0.059132,0,0.534985,0.351749,0.045642,2165.32234,7.26405,0.054135,54.65694592,-7.272525805,1,sunflower and peanuts
Glenmore,H 6560,0,0.176024,0,0,0.004422,0.051304,3319.203199,11.0411,0.809879,54.48429597,-6.997869719,1,sunflower and peanuts
Glenshane,C 7703,0.26241,0.014535,0.008034,0.583721,0.074685,0,4685.845439,29.8873,0.056615,54.86880391,-6.801438436,1,sunflower and peanuts
Glynn Hill,J 4099,0,0.130709,0.134958,0.06315,0.000518,0.139425,3107.416686,22.620899,0.6679,54.81925619,-5.82272998,1,sunflower and peanuts
Goles Wood,H 6894,0.029054,0.00011,0,0.201826,0.190698,0.201352,392.014193,59.838201,0.578311,54.78927543,-6.943702573,1,sunflower and peanuts
Gortin Glen,H 4782,0,0.143515,0.02392,0.076592,0,0.139176,4102.527128,11.0411,0.755974,54.68389275,-7.272043767,1,sunflower and peanuts
Gortmullan wood,H 2722,0,0.04386,0.203421,0.021451,0.014551,0.077514,4207.216486,27.9857,0.661107,54.14637096,-7.587569356,1,sunflower and peanuts
Gortnamoyagh 2,C 7815,0,0.030734,0,0.482731,0.187369,0.154248,174.031052,54.608501,0.299167,54.97641639,-6.782616188,1,sunflower and peanuts
Gosford,H 9740,0,0.014012,0.02037,0.374219,0.037746,0,1671.373941,2515.23271,0.553653,54.29958729,-6.510821681,1,sunflower and peanuts
Goudy Bridge,J 1064,0,0.047811,0.049241,0,0.033205,0,2897.880732,17.089399,0.74264,54.51246415,-6.302349999,1,sunflower and peanuts
Groomsport,J 5383,0,0.033493,0.388671,0,0.087215,0.124693,1467.412193,42.065433,0.457726,54.67185872,-5.629079457,1,sunflower and peanuts
Harry's Road,J 2460,0,0.044472,0.14534,0.04671,0.006226,0.082965,2107.294512,97.110233,0.706277,54.47332383,-6.087994042,1,sunflower and peanuts
Heagles ,C 9032,0.023972,0.047584,0.035475,0.123264,0,0,0,45.074668,0.769705,55.12705141,-6.589913277,1,sunflower and peanuts
Hollymount,J 4643,0,0.079683,0.02167,0.286391,0.070189,0.052397,3700.463766,60.9405,0.542065,54.31488032,-5.75724608,1,sunflower and peanuts
Iniscarn,H 8390,0,0.103151,0.006601,0.131399,0,0.044818,5746.21372,30.100051,0.758849,54.75109904,-6.71173226,1,sunflower and peanuts
Isle of Carnmoon,C 9839,0.102947,0.024156,0,0.298922,0.018815,0.004309,1529.412112,63.741052,0.55516,55.18838911,-6.462136125,1,sunflower and peanuts
Jamieson's wood,C 5219,0,0.045569,0.498152,0,0,0,3601.134946,71.151051,0.456278,55.01573003,-7.187878964,1,sunflower and peanuts
Kilbroney wood,J 1817,0,0.620929,0.083157,0.145153,0.017128,0.039533,688.675161,24.2816,0.082507,54.0886515,-6.1974362,1,sunflower and peanuts
Killeter,H 0977,0.019958,0,0,0.974828,0,0,3772.736205,16.2428,0,54.64108647,-7.861357091,1,sunflower and peanuts
Killylane reservoir,J 2998,0,0.01255,0,0.567353,0.085945,0.196658,3359.089823,44.819601,0.196658,54.81322731,-5.994183554,1,sunflower and peanuts
Killynether,J 4772,0,0.158612,0.030411,0.092103,0.179846,0.185983,0,42.155949,0.535051,54.57490672,-5.727516238,1,sunflower and peanuts
Kilmacrew,J 1748,0,0.01278,0.060027,0,0.000144,0.025453,0,739.319985,0.91616,54.3672364,-6.200638961,1,sunflower and peanuts
Kilmore Wood,H 1645,0.046438,0.084534,0.027288,0.070643,0,0.021036,4254.635321,65.020701,0.771098,54.35345194,-7.754672581,1,sunflower and peanuts
Kilmoyle,D 0436,0.005813,0,0.016218,0.471968,0.060521,0.03972,0,51.012751,0.445481,55.16022915,-6.369077096,1,sunflower and peanuts
Kiloanan Foresrt,H 3932,0,0.233413,0,0.240297,0.028119,0.102031,1661.093189,12.0857,0.49028,54.23543371,-7.402650845,1,sunflower and peanuts
Kilturk Lough,H 3527,0,0.136558,0.016508,0.000454,0,0.111383,61.750698,28.61015,0.729442,54.19080583,-7.464572354,1,sunflower and peanuts
Kilwaughter Quarry,D 3500,0,0.001486,0.025294,0.013536,0,0.081047,4117.200849,21.5154,0.881626,54.82960295,-5.899991187,1,sunflower and peanuts
Knappagh House ,H 8047,0,0.075387,0.02324,0,0.029126,0.054099,2538.739027,43.960798,0.861551,54.36539883,-6.769993108,1,sunflower and peanuts
Knockmany,H 5454,0,0.088401,0,0.127699,0,0.004935,576.845121,48.889502,0.77415,54.43168993,-7.168658963,1,sunflower and peanuts
Knocknany Road,J 3361,0,0.031731,0.106139,0.018823,0.042211,0.198027,1524.83839,18.36675,0.801097,54.48002598,-5.948811098,1,sunflower and peanuts
Knockninny,H 2730,0,0.016248,0.077403,0.009301,0.012763,0.179851,0,47.982101,0.845341,54.21823893,-7.586852899,1,sunflower and peanuts
Koram,H 3994,0.208833,0,0,0.181467,0,0.530922,292.82895,17.91005,0.6097,54.79236343,-7.394463728,1,sunflower and peanuts
Lacefield,J 3973,0,0.002767,0.797808,0.0309,0.120796,0,2975.925804,1407.151499,0.047728,54.58614288,-5.850657456,1,sunflower and peanuts
Lack,H 2766,0,0.044504,0.018094,0.011235,0.008307,0.317072,3151.089762,17.60355,0.91786,54.54163404,-7.58358969,1,sunflower and peanuts
Lackagh Burn,C 4500,0,0.151974,0.013276,0.02197,0.000628,0,3872.2469,93.602464,0.812151,54.84575455,-7.300264621,1,sunflower and peanuts
Lackagh Wood,C 4806,0.033862,0.375556,0.008035,0,0.053095,0,3458.195378,58.0851,0.529452,54.89936795,-7.252572905,1,sunflower and peanuts
Lady Dixon Park,J 2968,0,0.135248,0.603619,0.09447,0.01417,0,4241.872807,41.74315,0.152494,54.54390189,-6.007423604,1,sunflower and peanuts
Leckpatrick,C 3602,0,0.048694,0,0.003551,0,0.029909,3462.861607,20.2721,0.947755,54.86444599,-7.44010448,1,sunflower and peanuts
Lime park,H 7545,0,0.055728,0.12732,0.001439,0.026425,0.035072,407.818776,36.897149,0.758499,54.34819493,-6.847400468,1,sunflower and peanuts
Lisfordhun,H 4193,0,0.0042,0,0.236782,0.114873,0.503364,4857.618894,205.990032,0.644145,54.78322195,-7.363515384,1,sunflower and peanuts
Lislea wood ,H 4826,0.010926,0.235832,0.014287,0.050219,0,0.160368,493.451213,23.3515,0.662213,54.18077259,-7.265597665,1,sunflower and peanuts
Lissan North,H 7982,0,0.211642,0,0.199037,0,0.05001,3826.105732,42.565901,0.58932,54.67989605,-6.776004409,1,sunflower and peanuts
Lissan South,H 8081,0,0.085471,0,0.102009,0.007389,0.021448,3564.114301,15.2986,0.785654,54.67075755,-6.760778948,1,sunflower and peanuts
Longfield - slieve gullion,J 0118,0,0.119508,0.020965,0.047081,0.062683,0.144709,0,1843.211809,0.749167,54.10124374,-6.456788425,1,sunflower and peanuts
Lough Braden,H 2171,0.020294,0.054393,0,0.054828,0.405897,0.423083,4696.364728,13.0399,0.464589,54.58683295,-7.675933166,1,sunflower and peanuts
Lough Gall,H 9152,0,0.246018,0.046245,0.04119,0.019948,0.192902,2248.080967,822.039981,0.639695,54.40845946,-6.599288175,1,sunflower and peanuts
Loughbrickland,J 1042,0,0.064147,0.204609,0,0.013831,0.145504,965.214341,38.55855,0.695451,54.31491615,-6.310495863,1,sunflower and peanuts
Loughermore Bridge,C 5812,0.440471,0.195355,0.021221,0.188623,0.062652,0.023663,4180.082027,312.703501,0.091678,54.95219788,-7.095513528,1,sunflower and peanuts
Magheramorne house,J 4298,0,0.105471,0.072163,0.174268,0.005132,0.028217,6609.984284,49.3498,0.622489,54.80971815,-5.792130814,1,sunflower and peanuts
Magho,H 0758,0,0.308803,0,0.643125,0,0,0,20.9398,0.035971,54.47043813,-7.892783081,1,sunflower and peanuts
Malone Golf Club ,J 3167,0,0.073474,0.058178,0.078051,0.018097,0.016805,3128.997952,2855.03447,0.705136,54.53441142,-5.97698492,1,sunflower and peanuts
Mary Peters Track,J 3168,0,0.144321,0.216251,0.198513,0.113378,0,1619.440167,38.622301,0.327537,54.54338901,-5.976540578,1,sunflower and peanuts
Mazes wood ,D 0536,0.127884,0.005242,0.00561,0.178329,0.034401,0,4125.234731,35.665401,0.648534,55.16001827,-6.3533951,1,sunflower and peanuts
McIllroy park,J 2966,0,0.020384,0.278047,0.019764,0.045993,0.094485,0,97.283503,0.635812,54.52594636,-6.008298507,1,sunflower and peanuts
Meenakeeran,H 1081,0.510022,0.015383,0,0.151915,0.107362,0.198238,3689.57601,41.886433,0.215318,54.67699964,-7.845732816,1,sunflower and peanuts
Minnowburn,J 3268,0,0.130789,0.065019,0.124077,0.075428,0.011793,3205.429129,25.7994,0.604686,54.54312961,-5.961099432,1,sunflower and peanuts
Moss side,D 0134,0,0.025675,0.012083,0.014302,0.08028,0,2226.134674,4484.840955,0.86766,55.14289198,-6.416835903,1,sunflower and peanuts
Mount Stewart 02,J 5571,0,0.000194,0.025161,0.058928,0.015555,0.126487,707.038238,44.381749,0.900162,54.56354591,-5.604446601,1,sunflower and peanuts
Mount Stewart 03,J 5471,0,0.019003,0.026044,0.069318,0.019143,0.127199,3538.262674,24.013249,0.866493,54.5638509,-5.619891757,1,sunflower and peanuts
Mountsandel,C 8530,0,0.139715,0.556439,0.081915,0.069314,0,1555.771483,22.718101,0.025214,55.10997338,-6.668866573,1,sunflower and peanuts
Mountstewart,J 5668,0,0.039188,0.027456,0.104387,0.035017,0.10356,669.613182,15.4466,0.79026,54.53631328,-5.590590169,1,sunflower and peanuts
Movarran,H 1772,0,0.110602,0,0.38765,0,0.361417,1859.495767,656.189757,0.501748,54.59596599,-7.737744078,1,sunflower and peanuts
Moyarget wood,D 0539,0.220152,0,0.005444,0.406483,0.054936,0.01328,3059.204576,9.0465,0.312986,55.18695388,-6.352283933,1,sunflower and peanuts
Moyarget wood 2,D 0538,0.011263,0.027856,0,0.301418,0,0,2028.134098,10.6803,0.659464,55.17797536,-6.352654529,1,sunflower and peanuts
Moycraig 2,D 0237,0.088561,0.03626,0,0.288914,0.021703,0.09469,3912.443309,23.3515,0.564562,55.16962361,-6.400082081,1,sunflower and peanuts
Moycraig Wood,D 0138,0.159328,0.003583,0,0.185827,0.013972,0.000985,0,16.74275,0.63729,55.17880732,-6.415411911,1,sunflower and peanuts
Moydamlaght,H 7399,0,0.058976,0,0.236149,0.19821,0.314345,7782.017648,23.176901,0.506665,54.83347895,-6.864735977,1,sunflower and peanuts
Moyola,H 9394,0.052008,0.275577,0.006766,0.126754,0,0.065795,436.68395,629.495003,0.538895,54.78526991,-6.555201208,1,sunflower and peanuts
Muckenragh Forest,H 9154,0,0.012654,0.06476,0.007812,0.004729,0.068602,1595.663592,988.796523,0.869073,54.42642083,-6.598675426,1,sunflower and peanuts
Muckross Point,H 1563,0,0.899174,0,0,0,0,0,27.670049,0.074218,54.51518129,-7.76914322,1,sunflower and peanuts
Muff Glen 1,C 5218,0,0.173271,0.027983,0.031339,0,0,5081.390078,13.37446,0.767407,55.00674844,-7.188060525,1,sunflower and peanuts
Mullaghbawn,J 0018,0,0.025661,0.003811,0,0.051517,0.142761,4403.461405,84.859599,0.902763,54.1014388,-6.472069075,1,sunflower and peanuts
Mullaghfhad,H 5141,0.028844,0.075859,0,0.741012,0.021062,0.097995,4271.566085,17.77974,0.133222,54.31522549,-7.217106932,1,sunflower and peanuts
Mullans Glen,H 1979,0,0.020818,0,0,0.026785,0.291756,2115.303862,204.592808,0.943516,54.65877553,-7.706349702,1,sunflower and peanuts
Murlough Bay,D 1842,0,0.011748,0,0.010138,0.046093,0.081324,1067.205232,71.018799,0.899182,55.21095863,-6.147049543,1,sunflower and peanuts
Murlough NNR,J 4135,0,0.047909,0.020037,0.010285,0.254312,0.18818,0,90.951234,0.1964,54.24446653,-5.837782437,1,sunflower and peanuts
Murlough NNR 2,J 4035,0,0.038027,0.088709,0,0.085575,0.028938,0,118.184998,0.124879,54.24474066,-5.85311064,1,sunflower and peanuts
Narrow water 2,J 1220,0,0.275568,0.006702,0.15107,0.003643,0.042317,1225.095615,30.115251,0.555583,54.11692968,-6.287973617,1,sunflower and peanuts
Necarne,H 2456,0.00931,0.134064,0.017469,0.025009,0.012391,0,3774.388234,35.206501,0.801757,54.45195413,-7.63075084,1,sunflower and peanuts
Necarne Forest,H 2356,0.007296,0.278897,0.006899,0.209292,0.008086,0.016019,3346.183263,49.155701,0.48953,54.4520003,-7.646167006,1,sunflower and peanuts
Ness Wood,C 5211,0.058867,0.255661,0.005453,0.040176,0.022012,0,3932.898853,94.808098,0.617831,54.94387694,-7.18932863,1,sunflower and peanuts
Newcastle / Newforge,J 3269,0,0.093753,0.433336,0.079425,0.062317,0,1810.45572,392.344853,0.33117,54.5521071,-5.960651459,1,sunflower and peanuts
Nugents Wood 01,J 5952,0,0.111495,0.018129,0.094129,0.032686,0.10648,970.731344,19.749451,0.701521,54.39178024,-5.552876842,1,sunflower and peanuts
Nugents Wood 02,J 5951,0,0.068294,0.201617,0.120073,0.005563,0.031177,1868.575574,6777.00166,0.604454,54.38280502,-5.553411157,1,sunflower and peanuts
Old Mountjoy,H 4676,0,0.145287,0,0.150333,0.007169,0.069445,353.60046,76.155434,0.687151,54.63009098,-7.288489564,1,sunflower and peanuts
Owenreagh,H 4196,0.238687,0,0,0.276388,0,0.484011,1224.754593,1269.987295,0.484925,54.81016871,-7.36309163,1,sunflower and peanuts
Oxford island,J 0461,0,0.17763,0.02438,0.017081,0.023278,0.157027,1048.93838,31.1711,0.714405,54.48678999,-6.396004143,1,sunflower and peanuts
Parkanaur,H 7362,0,0.085725,0.011258,0.087839,0,0.009453,688.560298,36.712999,0.815178,54.50117259,-6.873969848,1,sunflower and peanuts
Peatlands Park,H 8960,0.276135,0.243571,0.082754,0.019042,0.026232,0.065236,0,18.2941,0.324652,54.48065886,-6.627678457,1,sunflower and peanuts
Pomeroy,H 7073,0,0.030624,0,0.115891,0.001575,0.02578,4017.740244,28.46495,0.84539,54.60039239,-6.917652888,1,sunflower and peanuts
Portmush,H 2044,0,0.01775,0.089684,0.089365,0.149236,0.023108,394.064377,108.214799,0.615241,54.34432769,-7.693222118,1,sunflower and peanuts
Portulla,J 4846,0,0.174167,0.050974,0.177951,0.046024,0.033508,2082.026237,5.81285,0.518023,54.34123452,-5.725053158,1,sunflower and peanuts
Pubble Forests,H 3346,0,0.13651,0.036323,0.008551,0.005006,0.298422,2848.696201,10.6803,0.813611,54.36161972,-7.493117409,1,sunflower and peanuts
Pubble Wood,H 3246,0,0.030369,0.030979,0.009855,0.038006,0.02101,4525.622444,7.24089,0.890792,54.36168338,-7.508499456,1,sunflower and peanuts
Randalstown forest,J 0887,0,0.316858,0,0.397084,0.022708,0,244.342982,41.023951,0.23309,54.71941659,-6.324749619,1,sunflower and peanuts
Rathkeelan,H 3641,0,0.111481,0.000394,0,0.023231,0.000351,1003.333275,21.5154,0.864894,54.31650161,-7.447574544,1,sunflower and peanuts
Reilly wood/Crom estate,H 3425,0,0.669548,0,0.047416,0.070521,0.030732,0,30.66075,0.105627,54.17290627,-7.480116435,1,sunflower and peanuts
Riversdale,H 2351,0,0.205345,0.030251,0.086022,0.0127,0.019279,5042.276736,69.309298,0.665683,54.40708436,-7.64655419,1,sunflower and peanuts
Riversdale,H 2452,0,0.174422,0.019084,0.056366,0.020961,0.017114,3239.146816,30.410301,0.729169,54.41602147,-7.631074156,1,sunflower and peanuts
Roe Valley,C 6720,0,0.135612,0.025124,0.038639,0,0.217729,5444.794706,168.416097,0.800624,55.02291983,-6.953201018,1,sunflower and peanuts
Ross / Stragolan,H 1466,0,0.162524,0.012939,0.532851,0.006134,0.020671,2249.977566,39.761599,0.285552,54.54215926,-7.784441202,1,sunflower and peanuts
Rylagh Wood ,H 4777,0.110935,0,0,0.017119,0.221262,0.328963,3109.057352,9.26092,0.643569,54.63898131,-7.272846721,1,sunflower and peanuts
Saval Bog,J 2337,0,0.036501,0.003653,0.000407,0.260585,0.257578,0,11.3542,0.698854,54.26706026,-6.112907418,1,sunflower and peanuts
Scotchtown,H 5486,0,0.136165,0,0,0.290055,0.358702,1414.465328,103.61805,0.573779,54.71911993,-7.162785347,1,sunflower and peanuts
Seagahan Dam,H 9038,0,0.024095,0.021313,0.18732,0,0.060057,3262.761411,40.002934,0.655038,54.282905,-6.618907376,1,sunflower and peanuts
Seskinore,H 4764,0,0.203821,0.034108,0.034961,0.033307,0.042867,0,58.498598,0.687334,54.52220997,-7.274924065,1,sunflower and peanuts
Shannaghmore,J 3827,0.00655,0.036667,0.026796,0.108985,0.369492,0.250714,1863.040424,31.08605,0.445229,54.17346255,-5.887437823,1,sunflower and peanuts
Shilnavogy,D 2501,0,0,0,0.164591,0.280229,0.081437,4890.651635,57.763901,0.547788,54.84117218,-6.055067424,1,sunflower and peanuts
Silent Valley,J 3021,0,0.040756,0,0.20554,0.522921,0.095777,3420.746123,59.861548,0.125259,54.12167863,-6.012447512,1,sunflower and peanuts
Skinboy,H 3792,0.114697,0,0,0.657737,0.08083,0.040221,2455.190908,46.048299,0.146737,54.77454992,-7.425808262,1,sunflower and peanuts
Slantry,J 0257,0.020086,0.043749,0.251585,0.029727,0.005574,0,0,67.0595,0.471114,54.45127585,-6.428229568,1,sunflower and peanuts
Slaughan glen,H 2774,0.061377,0.111715,0,0,0.414587,0.31882,4539.135298,42.940851,0.412321,54.61349724,-7.582855719,1,sunflower and peanuts
Slievannora bridge,D 1627,0.032271,0,0,0.199614,0.170692,0.597423,5609.61335,52.6454,0.597423,55.07676523,-6.18457708,1,sunflower and peanuts
Slieve Gullion,J 0319,0,0.185822,0.001457,0.271693,0.258615,0.192329,0,77.877502,0.28207,54.10982824,-6.425887429,1,sunflower and peanuts
Slieve Roosky,J 2023,0,0.041477,0,0.466327,0.249939,0.188152,2074.940021,154.380848,0.242257,54.1420651,-6.164508973,1,sunflower and peanuts
Slieveannora - altaguire bridge,D 1628,0.061288,0.014464,0,0.751182,0.043996,0.120544,2597.517862,32.171,0.12907,55.08574311,-6.184170225,1,sunflower and peanuts
slieveannora - altnahinch dam,D 1222,0.183935,0.012257,0,0.40525,0.232901,0.058143,4120.797658,53.5518,0.165657,55.03279149,-6.2491315,1,sunflower and peanuts
"Slieveannora, Carntuck",D 1321,0.462988,0,0,0.36973,0.158465,0,4256.129074,38.076,0.008817,55.02358734,-6.233895309,1,sunflower and peanuts
Springhill,H 8682,0,0.188975,0.005833,0.046905,0.008715,0.012901,2882.392012,505.690432,0.749572,54.67875119,-6.667514034,1,sunflower and peanuts
Springwell,C 7827,0,0.18498,0,0.355961,0.190707,0.220083,1766.894353,45.64005,0.266687,55.08418153,-6.779343789,1,sunflower and peanuts
St Patricks well,H 5949,0,0.391898,0,0.24417,0.062294,0.168712,2576.18095,23.011233,0.298706,54.38622371,-7.092616647,1,sunflower and peanuts
Straidkilly,D 3016,0,0.474388,0.024416,0.181733,0.015374,0.066429,0,54.133301,0.28784,54.97455619,-5.970527036,1,sunflower and peanuts
Stranmillis,J 3371,0,0.095048,0.803526,0.041485,0.01188,0,78.146593,26.84715,0.016726,54.56980041,-5.944303709,1,sunflower and peanuts
Tassagh,H 8637,0,0.061429,0.020344,0.007426,0.009319,0.056285,4059.568751,31.070699,0.901481,54.27461156,-6.680591043,1,sunflower and peanuts
Temple Golf and Country club,J 3558,0,0.008815,0.0177,0.029571,0.079568,0.143034,2945.19725,79.709599,0.825512,54.45256644,-5.919344948,1,sunflower and peanuts
The Argory,H 8758,0,0.090201,0.016473,0.008065,0.0001,0.070833,1831.268741,76.716301,0.87848,54.46304358,-6.659112214,1,sunflower and peanuts
Tievenadarragh,J 4046,0,0.06128,0.082311,0.368704,0.175145,0.078409,0,12.5006,0.312561,54.34349025,-5.847964733,1,sunflower and peanuts
Tievenameena,H 6488,0.484699,0,0,0.42617,0,0.061081,3609.179326,40.842433,0.08913,54.73591183,-7.007191528,1,sunflower and peanuts
"Tipperary Wood, Newcastle",J 3631,0,0.083698,0.266445,0.115027,0.027533,0.162524,3676.465916,22.0177,0.507296,54.20990687,-5.916236434,1,sunflower and peanuts
Tirnamadam north,H 5088,0.176827,0.018336,0,0.257145,0,0.256367,2573.132757,41.0149,0.531157,54.737497,-7.224507073,1,sunflower and peanuts
Tober Road,D 0424,0,0,0.019357,0.002051,0.04561,0.133268,0,71.891976,0.932981,55.05248453,-6.373461112,1,sunflower and peanuts
Tollymore 01,J 3332,0,0.074715,0.037944,0.405923,0.09334,0.087943,1828.968364,39.9984,0.388078,54.21967115,-5.961743414,1,sunflower and peanuts
Tollymore 02,J 3423,0.025127,0.032755,0,0.554212,0.105832,0.253976,5948.433371,20.871599,0.282074,54.13860919,-5.950425136,1,sunflower and peanuts
Torrosch,J 4373,0,0.003807,0.391129,0.020139,0.075707,0.275278,3726.435076,95.809232,0.509218,54.58502861,-5.788834781,1,sunflower and peanuts
Tullavey,H 2450,0.232873,0.070696,0.007746,0.054636,0.020176,0.067314,1412.766185,79.053749,0.613873,54.39805506,-7.631235548,1,sunflower and peanuts
Tully wood,H 4534,0.372619,0.152741,0,0.432864,0,0,2629.651463,454.318407,0.036437,54.25290829,-7.310343511,1,sunflower and peanuts
Tullycarby wood,H 1150,0,0.165772,0.016833,0.429616,0.033776,0.100828,1687.198334,10.777085,0.354002,54.39850097,-7.831385691,1,sunflower and peanuts
Tullygerravra,H 0147,0,0,0,0.454892,0.156972,0.362166,2818.561043,4.0467,0.388135,54.37166799,-7.985359722,1,sunflower and peanuts
Tullyree,J 3132,0,0.001726,0,0.105837,0.050523,0.356694,2111.798994,45.192751,0.841913,54.22018579,-5.992384108,1,sunflower and peanuts
Tullyvocardy/Derrin Mountain,H 0664,0,0.011482,0,0.252424,0.572712,0.144119,1346.427362,40.751099,0.153551,54.52435035,-7.908085126,1,sunflower and peanuts
UFTM,J 4280,0,0.206464,0.227753,0.278451,0.02594,0.005005,3117.583434,8.77159,0.261391,54.64814541,-5.800902369,1,sunflower and peanuts
Water hill,H 3477,0.480967,0.13863,0,0,0,0,3264.851594,106.490501,0.380402,54.64002326,-7.474170036,1,sunflower and peanuts
Wood Hills,H 3885,0,0.066805,0.03055,0.022692,0,0.045979,0,9.26092,0.812561,54.71159844,-7.411183551,1,sunflower and peanuts
Woodburn 1,H 3791,0.130863,0.039484,0,0.053352,0.008944,0.162363,3569.373994,210.003101,0.767357,54.76556752,-7.425935516,1,sunflower and peanuts
Woodburn 2,J 3589,0,0.08095,0,0.376688,0.123824,0.241603,1481.886898,45.64005,0.418538,54.73085803,-5.905103489,1,sunflower and peanuts
Woodburn North Reservoir,J 3790,0,0.000086,0.013056,0.27999,0.042241,0.174464,5269.208617,42.321899,0.664627,54.73929449,-5.87361015,1,sunflower and peanuts
"Woodhill, Kilskeery",H 2655,0,0.015898,0.017251,0,0.005279,0.254662,579.823862,25.873501,0.961572,54.44287278,-7.600006287,1,sunflower and peanuts
,H 3667,0,0.084209,0.009177,0.14005,0,0.26513,4754.587114,26.5327,0.76656453,54.55005786,-7.444421272,2,sunflower
,H 1866,0,0.021764,0.010023,0.538065,0,0.095541,1523.491253,82.968149,0.430148576,54.54203317,-7.722640076,2,sunflower
,H 4745,0,0.097032,0,0.542961,0.005026,0.188077,4207.544557,1464.209291,0.35498088,54.35153998,-7.277933571,2,sunflower
,H 6566,0.157635,0,0,0.810855,0,0,154.622344,77.159103,0.026085199,54.53818712,-6.996549219,2,sunflower
,H 6666,0.633661,0.010982,0,0.351326,0,0,1538.686352,52.365699,0.004031503,54.53805795,-6.981102704,2,sunflower
,C 6409,0,0.077703,0.024749,0.028581,0.050702,0.302183,2740.402732,92.301498,0.818264072,54.92452133,-7.002550717,2,sunflower
,C 4713,0,0.136396,0.048075,0.008725,0.005775,0,3429.256185,38.281601,0.801029603,54.962336,-7.267015542,2,sunflower
,H 9155,0,0.074756,0.011789,0,0.024174,0.058985,2246.997603,93.190201,0.889280796,54.4354015,-6.598368799,2,sunflower
,H 8757,0.083875,0.34703,0.015753,0,0,0.055565,0,27.123401,0.530960073,54.45406272,-6.659405858,2,sunflower
,C 4614,0,0.096542,0.317041,0.007687,0.002281,0,4565.389719,33.91725,0.576449244,54.97141099,-7.282465405,2,sunflower
,H 5277,0.030058,0.159537,0.015229,0.190643,0.008934,0.314064,1051.561713,22.685201,0.593816487,54.63849147,-7.195418434,2,sunflower
,H 0541,0,0.042712,0,0.115137,0.309189,0.280445,3726.010169,29.696,0.532961656,54.31774378,-7.923914358,2,sunflower
,J 3096,0,0,0.039237,0.095542,0.094831,0.143051,1648.835905,171.059695,0.741772639,54.7950149,-5.9795359,2,sunflower
,D 1237,0,0,0,0.596794,0.095574,0,10147.87084,28.36525,0.307632256,55.16746371,-6.243232199,2,sunflower
,C 6022,0,0.134918,0.045609,0.492105,0.055275,0.024958,2168.787153,11.3542,0.200611554,55.04177472,-7.062209795,2,sunflower
,C 5421,0,0.039353,0.125242,0.015695,0,0.017607,2197.317444,46.02825,0.81971023,55.03348029,-7.156240917,2,sunflower
,J 4478,0,0.053918,0.007894,0.039561,0.038757,0.179504,1256.91895,36.135799,0.859870011,54.6296266,-5.770927367,2,sunflower
,J 6268,0,0.061007,0.219903,0.26385,0.000001,0,2055.013836,34.57,0.44762284,54.53443203,-5.497988057,2,sunflower
,C 6605,0,0.10606,0.006285,0,0.059446,0.282834,2898.541435,104.525246,0.828208802,54.88833649,-6.972278353,2,sunflower
,C 4613,0,0.114327,0.036402,0.015113,0,0,2042.925907,2475.632507,0.834157793,54.96242913,-7.282625568,2,sunflower
,H 2935,0,0.136188,0.007021,0.013037,0.035006,0.09363,1823.607694,39.120201,0.757386438,54.26304669,-7.555712535,2,sunflower
,H 1042,0,0.026002,0.002649,0.553872,0.058106,0.177548,1024.665984,24.3626,0.358391895,54.32665412,-7.84704993,2,sunflower
,J 3470,0,0.118023,0.329508,0.144216,0.020496,0,1532.820248,30.4153,0.350128623,54.56055952,-5.92930814,2,sunflower
,C 6729,0,0.131457,0.001531,0.139558,0.092061,0.025533,2994.390739,17.9186,0.606427896,55.10374802,-6.951088598,2,sunflower
,J 3945,0,0.057551,0.013159,0.208128,0.139201,0.155718,0,5.64027,0.547245943,54.33478617,-5.863795606,2,sunflower
,C 9704,0,0.108749,0.085784,0.032757,0.004864,0.066331,6608.135642,192.816601,0.71880628,54.87431009,-6.489701004,2,sunflower
,H 5093,0.076483,0.204337,0.008762,0.153274,0.125713,0.231278,3967.759985,50.4328,0.4314321,54.78240721,-7.223647646,2,sunflower
,D 1233,0.139937,0.122772,0,0.466796,0.206054,0.027412,1030.457131,4.73723,0.064440441,55.13155146,-6.244810174,2,sunflower
,C 5314,0.192918,0.038008,0.016442,0.396941,0,0,164.128178,47.814751,0.350017432,54.97071676,-7.173172828,2,sunflower
,G 9455,0.316336,0.028764,0.006841,0.239046,0,0.186533,2632.355993,9.71762,0.409013819,54.44350038,-8.093226498,2,sunflower
,H 8176,0,0.047255,0.289757,0,0,0.031904,3647.673771,65.958099,0.616862145,54.62569363,-6.746666365,2,sunflower
,J 4577,0,0.114789,0.008758,0.249167,0.072722,0.046886,0,9.0465,0.554563757,54.62036449,-5.755950073,2,sunflower
,H 7445,0,0.043549,0,0,0.010394,0,2665.501809,45.636749,0.946056967,54.34834084,-6.862775028,2,sunflower
,C 7722,0.003799,0.015784,0.025281,0.590783,0.033751,0.071225,5596.820468,35.665401,0.330600784,55.03943532,-6.79634764,2,sunflower
,D 2904,0.34957,0.014557,0,0.629678,0.000004,0,2401.007722,23.315201,0.006191651,54.86709069,-5.991509082,2,sunflower
,D 0736,0.156316,0.00798,0,0.50927,0,0,167.698045,54.915001,0.32643393,55.15959047,-6.32203173,2,sunflower
,H 8385,0,0.162641,0.000048,0,0.006232,0.029358,1712.157944,18.5228,0.831078637,54.70619583,-6.713156384,2,sunflower
,D 3806,0,0.044695,0.053788,0.031914,0.029558,0.032157,0,36.284249,0.839840421,54.88264506,-5.850479925,2,sunflower
,J 3382,0,0.059047,0.157346,0.09973,0.041652,0.278204,0,155.725998,0.642224395,54.66855043,-5.939316814,2,sunflower
,H 6652,0,0,0.23713,0,0.008129,0.049198,3060.85761,21.9685,0.739781315,54.41231173,-6.984224393,2,sunflower
,J 1818,0,0.107581,0.271343,0.16604,0.08089,0.223942,5431.851601,32.232699,0.374145346,54.09763091,-6.197046692,2,sunflower
,H 4338,0.076742,0.212681,0.006494,0.228193,0.047587,0.191991,2306.787511,29.143299,0.421890827,54.28901201,-7.340451935,2,sunflower
,H 6482,0.551906,0,0.019386,0.296031,0,0.054486,53.720034,3991.008221,0.093958057,54.68202228,-7.008507593,2,sunflower
,J 3237,0,0.027268,0.001124,0.763303,0.104168,0.028084,0,111.760575,0.037257142,54.26481959,-5.974865186,2,sunflower
,C 5218,0,0.173271,0.027983,0.031339,0,0,5081.390078,13.37446,0.767406997,55.00674844,-7.188060525,2,sunflower
,D 0642,0.014146,0.020455,0.012354,0.136011,0.134482,0.135314,1096.09752,44.209366,0.682551851,55.21367603,-6.335467958,2,sunflower
,H 1466,0,0.162524,0.012939,0.532851,0.006134,0.020671,2249.977566,39.761599,0.28555162,54.54215926,-7.784441202,2,sunflower
,H 1466,0,0.162524,0.012939,0.532851,0.006134,0.020671,2249.977566,39.761599,0.28555162,54.54215926,-7.784441202,2,sunflower
,D 1337,0,0.015991,0,0.050748,0.006615,0,6458.832076,37.684949,0.926645949,55.16723663,-6.227548391,2,sunflower
,C 5716,0.50323,0,0,0.062459,0.036578,0.207564,824.175301,4.0467,0.397732618,54.98823888,-7.110324878,2,sunflower
,H 4232,0.003293,0.136316,0.016806,0.235367,0,0.180584,3283.589843,36.916349,0.608217162,54.23519679,-7.356646709,2,sunflower
,H 5138,0.060293,0.207603,0.01786,0.092413,0.06934,0.469139,2703.927019,52.353901,0.547141952,54.28827735,-7.217618336,2,sunflower
,H 3525,0,0.334646,0,0,0.213039,0.053586,1615.68812,9.0465,0.425583413,54.17283916,-7.464804579,2,sunflower
,H 0440,0,0.181979,0.051445,0.072241,0.159663,0.208353,0,61.182301,0.53079413,54.30876901,-7.939293904,2,sunflower
,H 4379,0,0.094344,0.010978,0.033047,0.010827,0.213165,3385.518743,15.0852,0.844843899,54.6573024,-7.334497358,2,sunflower
,C 9815,0.144511,0.069762,0.006838,0.148259,0.012981,0.204296,5007.630493,29.80365,0.617648253,54.97288909,-6.470385152,2,sunflower
,J 3670,0,0.078105,0.186367,0.069079,0.035352,0.043695,2468.591433,39.638401,0.631097505,54.56002659,-5.898414044,2,sunflower
,C 4117,0,0.053429,0.034042,0.012332,0,0,1641.519024,49.807433,0.857043982,54.99879265,-7.36010552,2,sunflower
,J 2721,0,0.068489,0.006108,0.21165,0.309085,0.177682,3193.301568,29.67665,0.404667551,54.12242743,-6.058301812,2,sunflower
,H 1264,0,0.212184,0.004929,0.376423,0,0.01444,0,94.8245,0.351979411,54.52424415,-7.815423169,2,sunflower
,D 2232,0,0.243095,0,0.002966,0.011773,0.040438,3488.447116,11.8946,0.742165911,55.1202157,-6.088552035,2,sunflower
,H 7085,0.028824,0.093787,0,0.823882,0.011276,0.042231,4657.390041,251.143069,0.042231202,54.70816936,-6.914783586,2,sunflower
,H 4329,0,0.076478,0.005637,0,0,0.059221,4190.656954,79.823799,0.917884263,54.20816469,-7.341741195,2,sunflower
,J 0528,0,0.101625,0.208464,0.002408,0.007988,0.14957,3860.490367,113.3712,0.648083449,54.1902466,-6.392190695,2,sunflower
,H 7695,0,0.368974,0,0.03959,0,0.115261,3389.944832,77.877502,0.568347,54.79710988,-6.819110062,2,sunflower
,J 3522,0,0.022177,0.041243,0.193477,0.160711,0.180756,2633.787409,154.717499,0.582391112,54.12936981,-5.935581913,2,sunflower
,J 3629,0,0.046304,0.018218,0.487016,0.306265,0,3595.065102,36.330299,0.142195918,54.19195135,-5.917140177,2,sunflower
,C 4921,0,0.065108,0.180257,0.033631,0.093578,0.029103,288.164579,8.450075,0.614117215,55.03399741,-7.234428224,2,sunflower
,C 5021,0,0.114296,0.179171,0.100571,0.020131,0.05042,1807.82647,154.438932,0.578236402,55.033898,-7.218790564,2,sunflower
,C 7535,0,0.202827,0.041695,0.323508,0.000352,0.110359,4873.429873,45.7159,0.418554222,55.15648685,-6.824200382,2,sunflower
,J 0735,0,0.185241,0.017498,0,0,0.025135,0,119.181997,0.738383685,54.25269371,-6.359073577,2,sunflower
,H 7677,0,0.221163,0.014162,0.197726,0,0,1693.440061,35.818199,0.560870962,54.63545137,-6.823800892,2,sunflower
,H 1767,0,0.058447,0,0.495489,0,0.341147,2975.425542,19.47635,0.446063925,54.55105074,-7.738032685,2,sunflower
,J 3265,0,0.024756,0.157223,0.060844,0.022565,0.007568,2477.556533,117.926568,0.734612231,54.51619705,-5.962441871,2,sunflower
,H 2067,0,0,0,0.307514,0.007305,0.20186,2597.291309,18.17355,0.685181253,54.55094134,-7.691671897,2,sunflower
,C 8303,0,0.250523,0.027422,0,0.098073,0.196626,934.490474,25.135799,0.623982128,54.8678457,-6.708011034,2,sunflower
,J 3020,0,0.021451,0.024278,0.163931,0.266267,0.105136,2274.560375,81.961597,0.523576615,54.11270021,-6.012877255,2,sunflower
,J 4375,0,0.01219,0.006298,0.060061,0,0.008529,2094.970653,147.759953,0.921451063,54.60298144,-5.787861416,2,sunflower
,H 6161,0,0.031161,0,0.329188,0.039102,0.351562,2943.973387,7.24089,0.600549107,54.493774,-7.059369468,2,sunflower
,H 6163,0.133404,0.021617,0.006587,0.341361,0.153621,0.265472,723.087976,15.176345,0.343410998,54.51173808,-7.058956612,2,sunflower
,H 1850,0,0.523123,0.007993,0.113242,0,0,2434.85609,7.24089,0.318565892,54.39830208,-7.723611853,2,sunflower
,C 4619,0,0.211082,0.146551,0.030189,0,0,0,38.740898,0.47924414,55.01632004,-7.281663254,2,sunflower
,C 5010,0,0.248377,0.100156,0,0,0.035495,4908.237426,50.355349,0.651466997,54.93509933,-7.220707717,2,sunflower
,H 5962,0.660831,0.049466,0.030478,0,0.009422,0.019353,210.072705,40.8932,0.202244022,54.50299238,-7.090030315,2,sunflower
,J 1020,0,0.334107,0.042248,0,0.249419,0.145388,268.042248,15.0472,0.347581088,54.11736082,-6.318544112,2,sunflower
,C 5720,0,0.088487,0.04969,0.003272,0,0.363777,3824.541896,18.633699,0.849170158,55.02416454,-7.10952902,2,sunflower
,H 6152,0,0.144087,0,0.098837,0.110057,0,4722.178582,40.197166,0.647013301,54.41293498,-7.061221711,2,sunflower
,J 2828,0,0,0,0.072185,0.152186,0.032349,3995.915562,118.432152,0.736753382,54.1850294,-6.040048318,2,sunflower
,D 0520,0,0.014538,0.014186,0.000026,0.016677,0.184522,0,48.5919,0.954573773,55.01635942,-6.35929002,2,sunflower
,H 2669,0,0.151099,0,0.207931,0.221253,0.27647,4444.483267,40.645766,0.419716857,54.56863513,-7.598774884,2,sunflower
,H 9733,0,0.033504,0.088237,0.021074,0,0.001479,3033.838926,26.1082,0.69011348,54.23672332,-6.513086982,2,sunflower
,D 3014,0,0.067931,0.094872,0.251976,0,0.017023,5874.796526,23.315201,0.585221445,54.95660235,-5.971432429,2,sunflower
,H 1941,0,0.067302,0.011194,0.203141,0,0.010524,4085.471692,35.6563,0.718363196,54.31741567,-7.708788791,2,sunflower
,J 4078,0,0.132701,0.468479,0.069437,0.021837,0.031557,1870.686138,35.5826,0.300672392,54.63075061,-5.832816929,2,sunflower
,H 6560,0,0.176024,0,0,0.004422,0.051304,3319.203199,11.0411,0.809878836,54.48429597,-6.997869719,2,sunflower
,H 3324,0,0.293859,0.005435,0,0.043142,0.045766,483.458006,30.5561,0.550783288,54.16398803,-7.495537737,2,sunflower
,H 6894,0.029054,0.00011,0,0.201826,0.190698,0.201352,392.014193,59.838201,0.578311018,54.78927543,-6.943702573,2,sunflower
,H 1871,0,0.03279,0,0.713943,0.055639,0.153405,3898.468318,58.412399,0.197629238,54.58694843,-7.722334636,2,sunflower
,C 4619,0,0.211082,0.146551,0.030189,0,0,0,38.740898,0.47924414,55.01632004,-7.281663254,2,sunflower
,D 0938,0,0.010948,0,0,0,0,7948.750019,26.818749,0.989051821,55.17711111,-6.289900458,2,sunflower
,H 8290,0,0.139229,0,0.31099,0.010945,0.264837,1773.059011,346.854929,0.538836046,54.75126302,-6.727258301,2,sunflower
,J 6164,0,0.012282,0.055507,0.005257,0.191868,0.107599,0,638.664317,0.735086152,54.49885141,-5.515602357,2,sunflower
,C 5219,0,0.045569,0.498152,0,0,0,3601.134946,71.151051,0.456278043,55.01573003,-7.187878964,2,sunflower
,C 5319,0,0.026272,0.021289,0,0,0,1690.570563,23.111799,0.944815194,55.01562467,-7.172248591,2,sunflower
,D 3106,0,0.01645,0,0,0.096261,0.221267,3816.94104,5.64027,0.887289955,54.88452566,-5.959472564,2,sunflower
,H 2451,0.10605,0.105026,0.026024,0.035098,0.014524,0.059263,3380.729014,257.462341,0.713277299,54.40703827,-7.631154875,2,sunflower
,H 1076,0.172838,0.040682,0.001611,0.523408,0.013901,0.167019,2108.344976,27.5797,0.245964708,54.63208469,-7.845903262,2,sunflower
,J 2016,0.002534,0,0,0.056887,0.292733,0.116596,2911.231598,45.9631,0.64784556,54.07921049,-6.167284689,2,sunflower
,J 4772,0,0.158612,0.030411,0.092103,0.179846,0.185983,0,42.155949,0.535051599,54.57490672,-5.727516238,2,sunflower
,D 0436,0.005813,0,0.016218,0.471968,0.060521,0.03972,0,51.012751,0.445480747,55.16022915,-6.369077096,2,sunflower
,H 3725,0,0.249194,0,0.044632,0,0.267928,2933.030154,27.620951,0.407035095,54.17269909,-7.434181059,2,sunflower
,H 5454,0,0.088401,0,0.127699,0,0.004935,576.845121,48.889502,0.774150044,54.43168993,-7.168658963,2,sunflower
,H 2729,0,0.011962,0.006508,0,0.004536,0.066849,1441.075499,26.8671,0.954242328,54.20925548,-7.586942627,2,sunflower
,C 3914,0,0,0,0,0,0.026051,0,51.334801,0.999999993,54.97200701,-7.391762348,2,sunflower
,H 4193,0,0.0042,0,0.236782,0.114873,0.503364,4857.618894,205.990032,0.6441447,54.78322195,-7.363515384,2,sunflower
,J 1042,0,0.064147,0.204609,0,0.013831,0.145504,965.214341,38.55855,0.695451092,54.31491615,-6.310495863,2,sunflower
,C 5711,0.299235,0.093833,0.00019,0.224874,0.161671,0.150666,323.362408,39.947966,0.220197445,54.9433315,-7.111317213,2,sunflower
,H 9051,0,0.115859,0.046024,0,0,0.083075,1939.345614,81.770474,0.686136279,54.39965633,-6.614986559,2,sunflower
,C 4215,0,0.024045,0.489519,0.0624,0,0,910.175332,20.590099,0.410201731,54.98074555,-7.344773996,2,sunflower
,H 8542,0,0.041137,0.007606,0,0.022427,0.050002,2570.708472,33.269699,0.893336949,54.31968469,-6.694516856,2,sunflower
,H 2287,0.036995,0.009131,0,0.019118,0.057529,0.283124,1235.270989,13.9903,0.877226597,54.73051624,-7.659264252,2,sunflower
,J 2617,0,0.049385,0.04733,0.462764,0.084367,0.160517,4047.643753,3878.702459,0.356155283,54.08675807,-6.075251865,2,sunflower
,J 2616,0,0.213506,0.034658,0.26239,0.131494,0.111763,2678.706757,50.791632,0.357952265,54.07777927,-6.075667504,2,sunflower
,H 7498,0,0.18602,0.003301,0.345664,0.086602,0.163156,4080.788588,24.418501,0.378414187,54.82435147,-6.849433114,2,sunflower
,D 0138,0.159328,0.003583,0,0.185827,0.013972,0.000985,0,16.74275,0.637289801,55.17880732,-6.415411911,2,sunflower
,G 9154,0.010674,0.092957,0.072918,0.530361,0,0.016832,1774.309616,20.9398,0.291282607,54.43447269,-8.139435814,2,sunflower
,C 5216,0,0.035465,0.113168,0.022156,0.005991,0.046786,4638.2756,41.735,0.82321921,54.98878522,-7.188423345,2,sunflower
,H 5141,0.028844,0.075859,0,0.741012,0.021062,0.097995,4271.566085,17.77974,0.133222291,54.31522549,-7.217106932,2,sunflower
,C 5613,0.27393,0.055212,0.006209,0.520298,0.016989,0.073181,388.207037,58.72735,0.127361983,54.96140766,-7.126529639,2,sunflower
,H 2356,0.007296,0.278897,0.006899,0.209292,0.008086,0.016019,3346.183263,49.155701,0.489530053,54.4520003,-7.646167006,2,sunflower
,H 2457,0,0.078592,0.08327,0.116127,0,0.078975,3556.911437,22.147401,0.722010879,54.46093726,-7.6306699,2,sunflower
,C 5211,0.058867,0.255661,0.005453,0.040176,0.022012,0,3932.898853,94.808098,0.617831525,54.94387694,-7.18932863,2,sunflower
,H 6492,0.171427,0,0,0.686996,0,0.000383,2336.092237,48.490049,0.141576918,54.77183793,-7.006311723,2,sunflower
,C 4911,0,0.144461,0.045717,0.038495,0.054358,0.061598,1505.897407,40.448501,0.716969355,54.94418017,-7.236136702,2,sunflower
,H 7461,0,0.155239,0.007375,0.129505,0.005379,0.017457,4557.875294,43.486632,0.702501412,54.49204636,-6.858788256,2,sunflower
,C 4214,0,0.169187,0.108567,0.001254,0.003423,0,1713.418621,21.5155,0.717569644,54.9717636,-7.344920309,2,sunflower
,H 3246,0,0.030369,0.030979,0.009855,0.038006,0.02101,4525.622444,7.24089,0.890792187,54.36168338,-7.508499456,2,sunflower
,J 0888,0,0.307292,0.031554,0.328563,0.073254,0,3906.742126,49.454466,0.237975636,54.72839566,-6.324379101,2,sunflower
,H 3325,0,0.285025,0,0,0.012827,0.032765,0,45.192699,0.619162619,54.17297144,-7.495428353,2,sunflower
,H 2452,0,0.174422,0.019084,0.056366,0.020961,0.017114,3239.146816,30.410301,0.72916862,54.41602147,-7.631074156,2,sunflower
,C 6720,0,0.135612,0.025124,0.038639,0,0.217729,5444.794706,168.416097,0.800624373,55.02291983,-6.953201018,2,sunflower
,H 1446,0,0.33479,0,0.220764,0,0.040612,4540.745026,193.691236,0.270691207,54.36249403,-7.785384595,2,sunflower
,J 1918,0,0.040625,0,0.759631,0.176137,0,2585.658368,923.666098,0.023607292,54.09740094,-6.181769593,2,sunflower
,J 1817,0,0.620929,0.083157,0.145153,0.017128,0.039533,688.675161,24.2816,0.082507429,54.0886515,-6.1974362,2,sunflower
,J 4057,0,0.158032,0.005842,0.156872,0.086732,0.186903,0,114.14442,0.592522294,54.44223787,-5.842787703,2,sunflower
,G 9847,0,0.008922,0,0.108835,0.16065,0.245602,2762.816069,33.4646,0.721593217,54.37166491,-8.031518848,2,sunflower
,H 4764,0,0.203821,0.034108,0.034961,0.033307,0.042867,0,58.498598,0.68733425,54.52220997,-7.274924065,2,sunflower
,C 5620,0,0.06019,0.319202,0.05811,0,0,3760.761735,8.57827,0.562497831,55.02427797,-7.125162462,2,sunflower
,J 3020,0,0.021451,0.024278,0.163931,0.266267,0.105136,2274.560375,81.961597,0.523576615,54.11270021,-6.012877255,2,sunflower
,H 3792,0.114697,0,0,0.657737,0.08083,0.040221,2455.190908,46.048299,0.146736937,54.77454992,-7.425808262,2,sunflower
,D 1626,0.045547,0.005791,0,0.337758,0.157731,0.453174,4992.697593,16.4356,0.453173636,55.06778734,-6.184983707,2,sunflower
,J 2119,0.013425,0,0,0.837146,0.02965,0.003399,2403.079584,23.484301,0.11977878,54.10591435,-6.150816428,2,sunflower
,J 2118,0,0,0,0.366347,0.447149,0.106756,747.523435,24.418501,0.18650438,54.09693518,-6.151216039,2,sunflower
,H 2774,0.061377,0.111715,0,0,0.414587,0.31882,4539.135298,42.940851,0.412320781,54.61349724,-7.582855719,2,sunflower
,H 8682,0,0.188975,0.005833,0.046905,0.008715,0.012901,2882.392012,505.690432,0.749572048,54.67875119,-6.667514034,2,sunflower
,C 7626,0.175227,0.098444,0.038252,0.633519,0.051337,0.003222,927.649232,35.790899,0.003221551,55.07551096,-6.810920864,2,sunflower
,C 4219,0,0,0.877996,0,0.012301,0,4281.487398,28.4973,0.109703549,55.01667324,-7.344187929,2,sunflower
,C 4417,0,0.073892,0.453941,0.009267,0,0.025169,0,33.91725,0.457424055,54.99853695,-7.313232583,2,sunflower
,D 0640,0.251219,0.004785,0.008235,0.527171,0,0.013283,1210.738079,17.896299,0.208588683,55.19571921,-6.336217246,2,sunflower
,D 3016,0,0.474388,0.024416,0.181733,0.015374,0.066429,0,54.133301,0.287839453,54.97455619,-5.970527036,2,sunflower
,J 1892,0,0.058954,0.006768,0.478896,0.128132,0.127723,266.058278,31.6043,0.322453814,54.76206466,-6.167622677,2,sunflower
,C 4215,0,0.024045,0.489519,0.0624,0,0,910.175332,20.590099,0.410201731,54.98074555,-7.344773996,2,sunflower
,H 5088,0.176827,0.018336,0,0.257145,0.016536,0.256367,2573.132757,41.0149,0.53115656,54.737497,-7.224507073,2,sunflower
,H 1150,0,0.165772,0.016833,0.429616,0.033776,0.100828,1687.198334,10.777085,0.3540024,54.39850097,-7.831385691,2,sunflower
,H 0363,0.131429,0.118485,0,0.318353,0.116193,0.133148,3069.511269,2188.941935,0.308767632,54.5153936,-7.954426366,2,sunflower
,H 0664,0,0.011482,0,0.252424,0.572712,0.144119,1346.427362,40.751099,0.153551346,54.52435035,-7.908085126,2,sunflower
,D 0900,0,0.017668,0.101192,0.045412,0.01722,0,2669.24741,110.654133,0.794222195,54.83592704,-6.304361133,2,sunflower
,H 0147,0,0,0,0.454892,0.156972,0.362166,2818.561043,4.0467,0.388135724,54.37166799,-7.985359722,2,sunflower
,C 5118,0,0.006983,0.015502,0,0,0.064302,1255.199769,30.2414,0.922237458,55.00685176,-7.203687507,2,sunflower
,C 5118,0,0.006983,0.015502,0,0,0.064302,1255.199769,30.2414,0.922237458,55.00685176,-7.203687507,2,sunflower
,J 5073,0,0.045562,0.586612,0.015178,0.013499,0.050273,2434.892673,37.138751,0.313276857,54.58300271,-5.68065549,2,sunflower
,J 2023,0,0.041477,0,0.466327,0.249939,0.188152,2074.940021,154.380848,0.242256986,54.1420651,-6.164508973,2,sunflower
,H 3667,0,0.084209,0.009177,0.14005,0,0.26513,4754.587114,26.5327,0.501435,54.55005786,-7.444421272,3,sunflower and peanuts
,J 0964,0.241509,0.013033,0.018333,0,0,0.01056,2778.065961,49.9825,0.709918,54.51267991,-6.317782558,3,sunflower and peanuts
,H 1886,0.66544,0,0,0,0.086718,0.181611,791.855375,40.707551,0.063052,54.72169218,-7.721413247,3,sunflower and peanuts
,H 4545,0.023991,0.282557,0,0.144764,0.008557,0.124567,531.376227,21.4946,0.411289,54.35172015,-7.308689007,3,sunflower and peanuts
,J 0223,0,0.000888,0,0.189591,0.437964,0.214992,1500.129955,12.8882,0.152903,54.14594917,-6.43982139,3,sunflower and peanuts
,H 4745,0,0.097032,0,0.542961,0.005026,0.188077,4207.544557,1464.209291,0.166904,54.35153998,-7.277933571,3,sunflower and peanuts
,D 1129,0.784957,0,0,0.030215,0.162536,0,3232.228131,19.453751,0.022292,55.09586342,-6.262040557,3,sunflower and peanuts
,H 5183,0.40028,0.013695,0,0.023114,0.319353,0,1915.008958,14.4552,0.243558,54.69248631,-7.209858051,3,sunflower and peanuts
,H 6667,0.119289,0.055898,0,0.441244,0.126081,0.206748,1696.183387,45.1691,0.043977,54.54703972,-6.980878805,3,sunflower and peanuts
,C 4713,0,0.136396,0.048075,0.008725,0.005775,0,3429.256185,38.281601,0.801029,54.962336,-7.267015542,3,sunflower and peanuts
,H 9555,0,0,0.004179,0.005131,0,0.06725,1479.248291,29.994499,0.913679,54.4346706,-6.536747634,3,sunflower and peanuts
,H 5277,0.030058,0.159537,0.015229,0.190643,0.008934,0.314064,1051.561713,22.685201,0.279753,54.63849147,-7.195418434,3,sunflower and peanuts
,J 3339,0,0.031137,0,0.17688,0.146764,0.165974,4876.271525,26.209299,0.479245,54.28251665,-5.958640613,3,sunflower and peanuts
,J 0322,0,0.153924,0.006394,0.338144,0.045617,0.109036,0,27.889734,0.346885,54.13676951,-6.424865579,3,sunflower and peanuts
,H 0541,0,0.042712,0,0.115137,0.309189,0.280445,3726.010169,29.696,0.252517,54.31774378,-7.923914358,3,sunflower and peanuts
,J 3099,0.000085,0.008311,0.021724,0.580693,0.056668,0.172399,7765.169131,16.149199,0.071017,54.8219465,-5.978190932,3,sunflower and peanuts
,C 6022,0,0.134918,0.045609,0.492105,0.055275,0.024958,2168.787153,11.3542,0.175654,55.04177472,-7.062209795,3,sunflower and peanuts
,C 9536,0,0.101429,0.026741,0.135649,0.121647,0.039511,2429.605995,36.157249,0.574173,55.1620363,-6.510224035,3,sunflower and peanuts
,D 1737,0.172839,0,0,0.390906,0.010719,0,486.34182,13.56605,0.425537,55.16630813,-6.164815404,3,sunflower and peanuts
,H 8598,0.374768,0.258236,0,0,0.032327,0.042175,0,63.999433,0.292493,54.82260861,-6.678338775,3,sunflower and peanuts
,J 6168,0,0.03121,0.026069,0.208124,0.032407,0.000027,2795.48216,129.24255,0.702163,54.53475049,-5.513420997,3,sunflower and peanuts
,H 2935,0,0.136188,0.007021,0.013037,0.035006,0.09363,1823.607694,39.120201,0.663756,54.26304669,-7.555712535,3,sunflower and peanuts
,J 3370,0,0.116091,0.442898,0.133581,0.045954,0,1811.40915,76.885174,0.242971,54.56082303,-5.944755566,3,sunflower and peanuts
,J 3470,0,0.118023,0.329508,0.144216,0.020496,0,1532.820248,30.4153,0.350128,54.56055952,-5.92930814,3,sunflower and peanuts
,D 0922,0,0.015298,0.10791,0,0.205798,0.330585,1914.81926,3297.347111,0.340408,55.03345732,-6.296026456,3,sunflower and peanuts
,C 9331,0.279651,0.037436,0.002092,0.364774,0.005523,0,302.428795,15.209,0.310523,55.11751875,-6.543228991,3,sunflower and peanuts
,C 9605,0,0.200736,0.003425,0.022012,0.156626,0.034316,4068.375973,24.816799,0.520654,54.88348241,-6.504940391,3,sunflower and peanuts
,C 9631,0,0.019972,0.022754,0.191799,0.122523,0,0,1279.453992,0.642952,55.11694757,-6.496229878,3,sunflower and peanuts
,H 6381,0.785591,0.000551,0,0.009726,0,0.119954,365.726696,20.582999,0.084179,54.67316648,-7.024224343,3,sunflower and peanuts
,J 3172,0,0.048128,0.742873,0.046626,0.039371,0,2089.089905,187.362854,0.123002,54.57929921,-5.974760763,3,sunflower and peanuts
,J 3946,0,0.067282,0.028722,0.280839,0.10323,0.224654,632.686366,62.568901,0.295274,54.34376341,-5.863329857,3,sunflower and peanuts
,C 9705,0,0.181989,0.037575,0.027955,0.019083,0.033977,5104.842909,14.64766,0.681096,54.88328965,-6.489365032,3,sunflower and peanuts
,H 5093,0.076483,0.204337,0.008762,0.153274,0.125713,0.231278,3967.759985,50.4328,0.200154,54.78240721,-7.223647646,3,sunflower and peanuts
,D 1233,0.139937,0.122772,0,0.466796,0.206054,0.027412,1030.457131,4.73723,0.037029,55.13155146,-6.244810174,3,sunflower and peanuts
,C 5314,0.192918,0.038008,0.016442,0.396941,0,0,164.128178,47.814751,0.350017,54.97071676,-7.173172828,3,sunflower and peanuts
,G 9455,0.316336,0.028764,0.006841,0.239046,0,0.186533,2632.355993,9.71762,0.22248,54.44350038,-8.093226498,3,sunflower and peanuts
,J 4577,0,0.114789,0.008758,0.249167,0.072722,0.046886,0,9.0465,0.507678,54.62036449,-5.755950073,3,sunflower and peanuts
,C 7821,0,0.050047,0,0.515573,0.170061,0.132297,0,42.803651,0.132022,55.03029921,-6.780982721,3,sunflower and peanuts
,C 7523,0,0.02942,0,0.690883,0.047223,0.061084,3375.943153,115.996902,0.171389,55.04872124,-6.82736104,3,sunflower and peanuts
,J 0525,0,0.02346,0,0.230125,0.370569,0.044316,1330.48964,22.03915,0.331531,54.163306,-6.39323578,3,sunflower and peanuts
,D 2904,0.34957,0.014557,0,0.629678,0.000004,0,2401.007722,23.315201,0.006192,54.86709069,-5.991509082,3,sunflower and peanuts
,H 8229,0.106361,0.300209,0,0.297045,0.002701,0.035836,3.9912,41.324126,0.217854,54.20341602,-6.744161454,3,sunflower and peanuts
,H 8385,0,0.162641,0.000048,0,0.006232,0.029358,1712.157944,18.5228,0.801721,54.70619583,-6.713156384,3,sunflower and peanuts
,H 4338,0.076742,0.212681,0.006494,0.228193,0.047587,0.191991,2306.787511,29.143299,0.2299,54.28901201,-7.340451935,3,sunflower and peanuts
,H 9147,0,0.03503,0.041047,0.012196,0.033056,0.0532,1370.40476,13.43561,0.812746,54.36355576,-6.600817108,3,sunflower and peanuts
,J 3237,0,0.027268,0.001124,0.763303,0.104168,0.028084,0,111.760575,0.009173,54.26481959,-5.974865186,3,sunflower and peanuts
,J 3279,0,0.56791,0,0.025706,0.152338,0.037293,0,93.058699,0.216753,54.64188111,-5.956158129,3,sunflower and peanuts
,C 5218,0,0.173271,0.027983,0.031339,0,0,5081.390078,13.37446,0.767407,55.00674844,-7.188060525,3,sunflower and peanuts
,H 4151,0,0.12044,0,0.166184,0.011992,0.188298,355.240543,57.883801,0.513087,54.40595433,-7.369374801,3,sunflower and peanuts
,H 1235,0,0.172421,0.039376,0.023713,0.011645,0.277559,2500.641656,133.436305,0.47214,54.26372655,-7.81659117,3,sunflower and peanuts
,H 1234,0,0.131135,0.011292,0,0.031289,0.610493,1254.668041,30.758699,0.204029,54.25474298,-7.816631116,3,sunflower and peanuts
,J 4877,0,0.308886,0.008801,0.32062,0.165179,0.055933,0,75.3032,0.129218,54.6194951,-5.709546764,3,sunflower and peanuts
,J 4879,0,0.202582,0.092382,0.1974,0.05414,0.035549,0,7.927,0.209072,54.63744685,-5.708537237,3,sunflower and peanuts
,J 0143,0,0.205806,0.021222,0,0.019261,0.050844,4153.284296,27.500051,0.689455,54.32575382,-6.448392339,3,sunflower and peanuts
,D 0642,0.014146,0.020455,0.012354,0.136011,0.134482,0.135314,1096.09752,44.209366,0.547238,55.21367603,-6.335467958,3,sunflower and peanuts
,D 0741,0.223585,0.008464,0,0.597347,0.006031,0.011829,2267.390426,19.773899,0.152745,55.20448236,-6.320143503,3,sunflower and peanuts
,H 1466,0,0.024045,0.489519,0.0624,0,0,910.175332,20.590099,0.410201,54.54215926,-7.784441202,3,sunflower and peanuts
,H 2047,0,0.032835,0.012925,0.06809,0.006764,0,3380.573996,20.16,0.826287,54.3712777,-7.693021024,3,sunflower and peanuts
,H 9527,0.283857,0.071882,0.014405,0.369179,0.009706,0.026228,1224.308393,1306.4935,0.212917,54.18321311,-6.545644201,3,sunflower and peanuts
,J 2870,0,0.048002,0.757429,0,0.058625,0,3074.522267,9.1005,0.135943,54.56211102,-6.021996387,3,sunflower and peanuts
,J 2672,0,0.163287,0.11743,0.104746,0.025033,0.416432,6133.074262,57.795898,0.110155,54.58056832,-6.052037922,3,sunflower and peanuts
,D 1337,0,0.015991,0,0.050748,0.006615,0,6458.832076,37.684949,0.926646,55.16723663,-6.227548391,3,sunflower and peanuts
,H 4232,0.003293,0.136316,0.016806,0.235367,0,0.180584,3283.589843,36.916349,0.427633,54.23519679,-7.356646709,3,sunflower and peanuts
,H 4231,0,0.074528,0,0.094381,0,0.372651,287.037034,31.746901,0.452706,54.2262137,-7.356786474,3,sunflower and peanuts
,J 4292,0,0.073601,0.007536,0.204262,0.026094,0.033837,2879.552778,48.5919,0.654669,54.75586115,-5.795064371,3,sunflower and peanuts
,J 0414,0,0.041417,0.039073,0.286147,0.087174,0.070635,0,3732.20956,0.475553,54.06472521,-6.412319882,3,sunflower and peanuts
,H 5138,0.060293,0.207603,0.01786,0.092413,0.06934,0.469139,2703.927019,52.353901,0.078003,54.28827735,-7.217618336,3,sunflower and peanuts
,H 0440,0,0.181979,0.051445,0.072241,0.159663,0.208353,0,61.182301,0.322441,54.30876901,-7.939293904,3,sunflower and peanuts
,J 6052,0,0.020764,0.016264,0.010109,0.031294,0.071169,2586.272351,2291.536279,0.850399,54.39146737,-5.537497142,3,sunflower and peanuts
,C 9917,0.613693,0.013802,0,0.353005,0,0,2429.425615,43.14975,0.0195,54.99065022,-6.454085286,3,sunflower and peanuts
,D 2718,0,0,0.009161,0.045524,0.146304,0.057454,3573.178401,140.94725,0.717369,54.99328311,-6.016461216,3,sunflower and peanuts
,J 4681,0,0.185349,0.226987,0.170069,0.011425,0,3893.675713,27.660899,0.406171,54.65598086,-5.738489083,3,sunflower and peanuts
,J 2722,0,0.027916,0.008938,0.286338,0.24453,0.359329,2141.306851,189.310001,0.072949,54.13140607,-6.057881737,3,sunflower and peanuts
,H 1264,0,0.212184,0.004929,0.376423,0,0.01444,0,94.8245,0.337539,54.52424415,-7.815423169,3,sunflower and peanuts
,H 8630,0.010346,0.257427,0.007961,0.315774,0,0.039938,3426.734345,94.431202,0.363969,54.21174276,-6.682596367,3,sunflower and peanuts
,H 7086,0.073841,0.014081,0.001722,0.886347,0.005632,0,3615.690021,27.4863,0.007177,54.71715068,-6.914543618,3,sunflower and peanuts
,H 7384,0.119283,0.009328,0.022402,0.251824,0.199476,0.169185,408.831652,9.71762,0.092933,54.69876249,-6.868502202,3,sunflower and peanuts
,J 2419,0.325307,0,0,0,0.147327,0.0045,1623.615406,153.091948,0.522866,54.10520094,-6.104977847,3,sunflower and peanuts
,H 9178,0.003349,0.039183,0.086308,0.43901,0,0,0,15.5387,0.432149,54.6419528,-6.591269604,3,sunflower and peanuts
,H 3241,0,0.068792,0,0.060659,0,0.00618,197.711506,159.088271,0.864368,54.31676756,-7.509035338,3,sunflower and peanuts
,J 1225,0,0.063482,0.034073,0.00613,0.021656,0.039768,1968.554013,82.434333,0.591765,54.16182855,-6.286119904,3,sunflower and peanuts
,H 2627,0,0.32191,0.036269,0.04706,0.034496,0.173181,5066.990641,28.94405,0.387086,54.19134012,-7.602440875,3,sunflower and peanuts
,H 4329,0,0.076478,0.005637,0,0,0.059221,4190.656954,79.823799,0.858663,54.20816469,-7.341741195,3,sunflower and peanuts
,H 7695,0,0.368974,0,0.03959,0,0.115261,3389.944832,77.877502,0.453086,54.79710988,-6.819110062,3,sunflower and peanuts
,J 0528,0,0.101625,0.208464,0.002408,0.007988,0.14957,3860.490367,113.3712,0.498513,54.1902466,-6.392190695,3,sunflower and peanuts
,J 3525,0.040921,0,0,0,0.915471,0,1645.126086,95.564301,0.043492,54.15630366,-5.934241013,3,sunflower and peanuts
,J 3828,0,0.036595,0.054666,0.448017,0.1436,0.06994,1300.502432,178.020004,0.224849,54.18244018,-5.886979948,3,sunflower and peanuts
,C 7535,0,0.202827,0.041695,0.323508,0.000352,0.110359,4873.429873,45.7159,0.308196,55.15648685,-6.824200382,3,sunflower and peanuts
,J 0835,0,0.114222,0.009633,0.035037,0,0.106233,2235.29519,19.4545,0.683534,54.2524839,-6.343737914,3,sunflower and peanuts
,H 7677,0,0.221163,0.014162,0.197726,0,0,1693.440061,35.818199,0.560871,54.63545137,-6.823800892,3,sunflower and peanuts
,H 1767,0,0.058447,0,0.495489,0,0.341147,2975.425542,19.47635,0.104917,54.55105074,-7.738032685,3,sunflower and peanuts
,J 0537,0,0.040089,0.007256,0.022181,0.023815,0.170742,1256.854012,59.292032,0.716701,54.27106759,-6.389045133,3,sunflower and peanuts
,H 8770,0,0.368723,0,0.101088,0,0.038902,490.913372,34.986599,0.491287,54.57081269,-6.655575862,3,sunflower and peanuts
,H 2067,0,0,0,0.307514,0.007305,0.20186,2597.291309,18.17355,0.483322,54.55094134,-7.691671897,3,sunflower and peanuts
,H 1851,0,0.734211,0.046342,0.123523,0,0,0,48.85515,0.056208,54.40728537,-7.723551367,3,sunflower and peanuts
,C 4619,0,0.211082,0.146551,0.030189,0,0,0,38.740898,0.479244,55.01632004,-7.281663254,3,sunflower and peanuts
,H 2244,0,0.080921,0.568814,0.014058,0,0.030658,1600.786392,53.636452,0.221309,54.34424551,-7.662470309,3,sunflower and peanuts
,C 5010,0,0.248377,0.100156,0,0,0.035495,4908.237426,50.355349,0.615972,54.93509933,-7.220707717,3,sunflower and peanuts
,J 1020,0,0.334107,0.042248,0,0.249419,0.145388,268.042248,15.0472,0.202193,54.11736082,-6.318544112,3,sunflower and peanuts
,C 5720,0,0.088487,0.04969,0.003272,0,0.363777,3824.541896,18.633699,0.485393,55.02416454,-7.10952902,3,sunflower and peanuts
,H 6153,0,0.07796,0.021046,0.08755,0,0,973.333748,48.111034,0.813443,54.42191715,-7.061016358,3,sunflower and peanuts
,H 9133,0.135651,0.141963,0.026637,0.522866,0,0.05429,1035.509195,28.629,0.118594,54.23782345,-6.605075886,3,sunflower and peanuts
,H 8930,0,0.023484,0.028854,0.223905,0.03116,0.099187,0,27.293501,0.574008,54.21123121,-6.636628609,3,sunflower and peanuts
,J 2828,0,0,0,0.072185,0.152186,0.032349,3995.915562,118.432152,0.704404,54.1850294,-6.040048318,3,sunflower and peanuts
,H 2669,0,0.151099,0,0.207931,0.221253,0.27647,4444.483267,40.645766,0.143247,54.56863513,-7.598774884,3,sunflower and peanuts
,D 2922,0,0.045954,0.038794,0.015968,0.00772,0.106906,3897.554862,315.936445,0.75141,55.02867741,-5.983432021,3,sunflower and peanuts
,C 9529,0.070146,0,0,0.668519,0,0,0,31.318701,0.261335,55.09918134,-6.512563569,3,sunflower and peanuts
,C 8216,0,0.107797,0,0.431514,0.024003,0.119115,1246.804781,4.0467,0.310722,54.98475533,-6.719878849,3,sunflower and peanuts
,H 4638,0,0.151219,0,0.262669,0,0.189399,7044.083086,3636.069051,0.396713,54.28875117,-7.294388695,3,sunflower and peanuts
,H 9733,0,0.033504,0.088237,0.021074,0,0.001479,3033.838926,26.1082,0.688634,54.23672332,-6.513086982,3,sunflower and peanuts
,D 3011,0,0.119165,0,0.047534,0.068045,0.02186,3984.33583,24.5145,0.743395,54.92967146,-5.972788635,3,sunflower and peanuts
,D 3013,0,0.237526,0.008587,0.209188,0.01169,0.067632,5318.146653,170.105403,0.465377,54.9476254,-5.971884749,3,sunflower and peanuts
,D 1821,0.207699,0.056364,0,0.580443,0.115327,0,3720.770537,12.5006,0.040167,55.02242786,-6.155760004,3,sunflower and peanuts
,H 5380,0.741252,0,0,0,0.159792,0.068247,2980.956818,59.4785,0.03071,54.66533387,-7.179390079,3,sunflower and peanuts
,H 1941,0,0.067302,0.011194,0.203141,0,0.010524,4085.471692,35.6563,0.707839,54.31741567,-7.708788791,3,sunflower and peanuts
,H 9917,0,0.235667,0.086614,0.13086,0.06406,0.214351,0,15.0852,0.268447,54.0926512,-6.487676772,3,sunflower and peanuts
,D 2031,0.016122,0.011062,0,0.024432,0.631936,0.065898,9031.847637,40.296749,0.25055,55.11172584,-6.120302398,3,sunflower and peanuts
,H 6560,0,0.176024,0,0,0.004422,0.051304,3319.203199,11.0411,0.758575,54.48429597,-6.997869719,3,sunflower and peanuts
,H 6893,0.020642,0.008103,0.014253,0.575076,0.233489,0.092872,4720.078802,49.274399,0.055565,54.78029413,-6.943936721,3,sunflower and peanuts
,H 4782,0,0.143515,0.02392,0.076592,0,0.139176,4102.527128,11.0411,0.616798,54.68389275,-7.272043767,3,sunflower and peanuts
,H 2722,0,0.04386,0.203421,0.021451,0.014551,0.077514,4207.216486,27.9857,0.583593,54.14637096,-7.587569356,3,sunflower and peanuts
,C 7815,0,0.030734,0,0.482731,0.187369,0.154248,174.031052,54.608501,0.144919,54.97641639,-6.782616188,3,sunflower and peanuts
,H 9740,0,0.014012,0.02037,0.374219,0.037746,0,1671.373941,2515.23271,0.553653,54.29958729,-6.510821681,3,sunflower and peanuts
,J 4643,0,0.079683,0.02167,0.286391,0.070189,0.052397,3700.463766,60.9405,0.489668,54.31488032,-5.75724608,3,sunflower and peanuts
,C 9839,0.102947,0.024156,0,0.298922,0.018815,0.004309,1529.412112,63.741052,0.550851,55.18838911,-6.462136125,3,sunflower and peanuts
,J 1817,0,0.620929,0.083157,0.145153,0.017128,0.039533,688.675161,24.2816,0.042974,54.0886515,-6.1974362,3,sunflower and peanuts
,H 1076,0.172838,0.040682,0.001611,0.523408,0.013901,0.167019,2108.344976,27.5797,0.078946,54.63208469,-7.845903262,3,sunflower and peanuts
,J 4772,0,0.158612,0.030411,0.092103,0.179846,0.185983,0,42.155949,0.349068,54.57490672,-5.727516238,3,sunflower and peanuts
,H 1645,0.046438,0.084534,0.027288,0.070643,0,0.021036,4254.635321,65.020701,0.750062,54.35345194,-7.754672581,3,sunflower and peanuts
,D 0436,0.005813,0,0.016218,0.471968,0.060521,0.03972,0,51.012751,0.405761,55.16022915,-6.369077096,3,sunflower and peanuts
,H 5454,0,0.088401,0,0.127699,0,0.004935,576.845121,48.889502,0.769215,54.43168993,-7.168658963,3,sunflower and peanuts
,H 4193,0,0.0042,0,0.236782,0.114873,0.503364,4857.618894,205.990032,0.140781,54.78322195,-7.363515384,3,sunflower and peanuts
,H 4826,0.010926,0.235832,0.014287,0.050219,0,0.160368,493.451213,23.3515,0.501845,54.18077259,-7.265597665,3,sunflower and peanuts
,H 4041,0,0.211775,0,0.227972,0.014487,0.276059,1662.252169,5.64027,0.269706,54.31620435,-7.386114807,3,sunflower and peanuts
,H 7982,0,0.211642,0,0.199037,0,0.05001,3826.105732,42.565901,0.53931,54.67989605,-6.776004409,3,sunflower and peanuts
,H 8081,0,0.085471,0,0.102009,0.007389,0.021448,3564.114301,15.2986,0.764206,54.67075755,-6.760778948,3,sunflower and peanuts
,H 2171,0.020294,0.054393,0,0.054828,0.405897,0.423083,4696.364728,13.0399,0.041506,54.58683295,-7.675933166,3,sunflower and peanuts
,H 7488,0.964393,0,0,0,0,0,0,7.26405,0.005803,54.73454119,-6.85198042,3,sunflower and peanuts
,J 1042,0,0.064147,0.204609,0,0.013831,0.145504,965.214341,38.55855,0.549947,54.31491615,-6.310495863,3,sunflower and peanuts
,C 4215,0,0.024045,0.489519,0.0624,0,0,910.175332,20.590099,0.410201,54.98074555,-7.344773996,3,sunflower and peanuts
,H 9152,0,0.246018,0.046245,0.04119,0.019948,0.192902,2248.080967,822.039981,0.446793,54.40845946,-6.599288175,3,sunflower and peanuts
,H 1081,0.510022,0.015383,0,0.151915,0.107362,0.198238,3689.57601,41.886433,0.01708,54.67699964,-7.845732816,3,sunflower and peanuts
,J 3650,0,0.042174,0.032864,0.036651,0.023255,0.291686,0,7.927,0.573371,54.38048107,-5.907601367,3,sunflower and peanuts
,D 0134,0,0.025675,0.012083,0.014302,0.08028,0,2226.134674,4484.840955,0.86766,55.14289198,-6.416835903,3,sunflower and peanuts
,J 5668,0,0.039188,0.027456,0.104387,0.035017,0.10356,669.613182,15.4466,0.6867,54.53631328,-5.590590169,3,sunflower and peanuts
,J 5571,0,0.000194,0.025161,0.058928,0.015555,0.126487,707.038238,44.381749,0.773675,54.56354591,-5.604446601,3,sunflower and peanuts
,H 1772,0,0.110602,0,0.38765,0,0.361417,1859.495767,656.189757,0.140331,54.59596599,-7.737744078,3,sunflower and peanuts
,D 0138,0.159328,0.003583,0,0.185827,0.013972,0.000985,0,16.74275,0.636305,55.17880732,-6.415411911,3,sunflower and peanuts
,G 9154,0.010674,0.092957,0.072918,0.530361,0,0.016832,1774.309616,20.9398,0.274451,54.43447269,-8.139435814,3,sunflower and peanuts
,C 5216,0,0.060182,0.076975,0.021217,0.003305,0.003061,5807.509857,70.8566,0.83526,54.98878522,-7.188423345,3,sunflower and peanuts
,H 5141,0.028844,0.075859,0,0.741012,0.021062,0.097995,4271.566085,17.77974,0.035227,54.31522549,-7.217106932,3,sunflower and peanuts
,H 3523,0.076998,0.672302,0,0.019033,0,0.128018,123.407432,243.835603,0.077929,54.15487243,-7.46503655,3,sunflower and peanuts
,J 4035,0,0.038027,0.088709,0,0.085575,0.028938,0,118.184998,0.095941,54.24474066,-5.85311064,3,sunflower and peanuts
,J 4135,0,0.047909,0.020037,0.010285,0.254312,0.18818,0,90.951234,0.00822,54.24446653,-5.837782437,3,sunflower and peanuts
,J 1120,0,0.547927,0.073401,0.144861,0.022379,0,0,91.377502,0.112461,54.11714622,-6.303258764,3,sunflower and peanuts
,H 2356,0.007296,0.278897,0.006899,0.209292,0.008086,0.016019,3346.183263,49.155701,0.473511,54.4520003,-7.646167006,3,sunflower and peanuts
,C 5211,0.058867,0.255661,0.005453,0.040176,0.022012,0,3932.898853,94.808098,0.617831,54.94387694,-7.18932863,3,sunflower and peanuts
,J 5951,0,0.068294,0.201617,0.120073,0.005563,0.031177,1868.575574,6777.00166,0.573277,54.38280502,-5.553411157,3,sunflower and peanuts
,H 7073,0,0.030624,0,0.115891,0.001575,0.02578,4017.740244,28.46495,0.81961,54.60039239,-6.917652888,3,sunflower and peanuts
,J 5682,0,0.121768,0.174472,0.215198,0.023895,0.065798,1086.887564,5.64027,0.351605,54.66196513,-5.583154965,3,sunflower and peanuts
,H 3246,0,0.030369,0.030979,0.009855,0.038006,0.02101,4525.622444,7.24089,0.869782,54.36168338,-7.508499456,3,sunflower and peanuts
,J 0887,0,0.316858,0,0.397084,0.022708,0,244.342982,41.023951,0.23309,54.71941659,-6.324749619,3,sunflower and peanuts
,J 4077,0,0.177122,0.007394,0.000607,0.018782,0.19092,960.059053,73.026499,0.600991,54.62177397,-5.833294347,3,sunflower and peanuts
,H 3425,0,0.669548,0,0.047416,0.070521,0.030732,0,30.66075,0.074895,54.17290627,-7.480116435,3,sunflower and peanuts
,H 2351,0,0.205345,0.030251,0.086022,0.0127,0.019279,5042.276736,69.309298,0.646404,54.40708436,-7.64655419,3,sunflower and peanuts
,H 2452,0,0.174422,0.019084,0.056366,0.020961,0.017114,3239.146816,30.410301,0.712055,54.41602147,-7.631074156,3,sunflower and peanuts
,J 2325,0,0,0,0,0.701525,0.182305,1578.714826,33.252967,0.11617,54.15931444,-6.117815267,3,sunflower and peanuts
,C 6720,0,0.135612,0.025124,0.038639,0,0.217729,5444.794706,168.416097,0.582895,55.02291983,-6.953201018,3,sunflower and peanuts
,H 1446,0,0.33479,0,0.220764,0,0.040612,4540.745026,193.691236,0.230079,54.36249403,-7.785384595,3,sunflower and peanuts
,J 1917,0,0.126295,0.002744,0.54177,0.175501,0.081378,5153.932208,39.999232,0.072311,54.0884216,-6.182162396,3,sunflower and peanuts
,J 4057,0,0.158032,0.005842,0.156872,0.086732,0.186903,0,114.14442,0.405619,54.44223787,-5.842787703,3,sunflower and peanuts
,J 2337,0,0.036501,0.003653,0.000407,0.260585,0.257578,0,11.3542,0.441276,54.26706026,-6.112907418,3,sunflower and peanuts
,G 9847,0,0.008922,0,0.108835,0.16065,0.245602,2762.816069,33.4646,0.475991,54.37166491,-8.031518848,3,sunflower and peanuts
,J 3943,0,0.064698,0,0.309178,0.013432,0.164477,0,129.5522,0.417484,54.31683164,-5.86472634,3,sunflower and peanuts
,H 9038,0,0.024095,0.021313,0.18732,0,0.060057,3262.761411,40.002934,0.594981,54.282905,-6.618907376,3,sunflower and peanuts
,H 4764,0,0.203821,0.034108,0.034961,0.033307,0.042867,0,58.498598,0.644467,54.52220997,-7.274924065,3,sunflower and peanuts
,D 2501,0,0,0,0.164591,0.280229,0.081437,4890.651635,57.763901,0.466351,54.84117218,-6.055067424,3,sunflower and peanuts
,H 3792,0.114697,0,0,0.657737,0.08083,0.040221,2455.190908,46.048299,0.106516,54.77454992,-7.425808262,3,sunflower and peanuts
,J 0318,0,0.070105,0.005294,0.193719,0.013947,0.244978,1404.631793,53.89835,0.447208,54.10084779,-6.426227674,3,sunflower and peanuts
,J 0219,0,0.019355,0.006583,0.008993,0.185994,0.214586,599.283264,195.075002,0.564489,54.11002725,-6.441171012,3,sunflower and peanuts
,D 1628,0.061288,0.014464,0,0.751182,0.043996,0.120544,2597.517862,32.171,0.008526,55.08574311,-6.184170225,3,sunflower and peanuts
,D 1627,0.032271,0,0,0.199614,0.170692,0.597423,5609.61335,52.6454,0,55.07676523,-6.18457708,3,sunflower and peanuts
,D 1321,0.462988,0,0,0.36973,0.158465,0,4256.129074,38.076,0.008817,55.02358734,-6.233895309,3,sunflower and peanuts
,H 2773,0,0.169357,0,0.166429,0.171302,0.334801,2554.003629,32.847666,0.158111,54.60451439,-7.582947642,3,sunflower and peanuts
,J 2628,0.033766,0,0,0,0.054571,0.041654,1929.738824,7.24089,0.870009,54.18552392,-6.070664836,3,sunflower and peanuts
,H 8682,0,0.188975,0.005833,0.046905,0.008715,0.012901,2882.392012,505.690432,0.736671,54.67875119,-6.667514034,3,sunflower and peanuts
,C 7827,0,0.18498,0,0.355961,0.190707,0.220083,1766.894353,45.64005,0.046604,55.08418153,-6.779343789,3,sunflower and peanuts
,D 3016,0,0.474388,0.024416,0.181733,0.015374,0.066429,0,54.133301,0.221411,54.97455619,-5.970527036,3,sunflower and peanuts
,J 1892,0,0.058954,0.006768,0.478896,0.128132,0.127723,266.058278,31.6043,0.194731,54.76206466,-6.167622677,3,sunflower and peanuts
,H 8637,0,0.061429,0.020344,0.007426,0.009319,0.056285,4059.568751,31.070699,0.845196,54.27461156,-6.680591043,3,sunflower and peanuts
,C 4215,0,0.024045,0.489519,0.0624,0,0,910.175332,20.590099,0.410201,54.98074555,-7.344773996,3,sunflower and peanuts
,H 8758,0,0.090201,0.016473,0.008065,0.0001,0.070833,1831.268741,76.716301,0.807647,54.46304358,-6.659112214,3,sunflower and peanuts
,H 5579,0.083394,0.033812,0.007064,0.013438,0,0.393968,2039.729504,34.020599,0.461515,54.65613789,-7.148587076,3,sunflower and peanuts
,J 0214,0,0.0149,0.017629,0.044344,0.007085,0.099875,0,26.979,0.816167,54.06512452,-6.442853904,3,sunflower and peanuts
,J 4046,0,0.06128,0.082311,0.368704,0.175145,0.078409,0,12.5006,0.234152,54.34349025,-5.847964733,3,sunflower and peanuts
,H 5088,0.176827,0.018336,0,0.257145,0.016536,0.256367,2573.132757,41.0149,0.27479,54.737497,-7.224507073,3,sunflower and peanuts
,J 2218,0.00604,0,0,0,0.077927,0.916033,2660.330212,18.17355,0,54.0966994,-6.135939588,3,sunflower and peanuts
,H 4534,0.372619,0.152741,0,0.432864,0,0,2629.651463,454.318407,0.036437,54.25290829,-7.310343511,3,sunflower and peanuts
,H 1150,0,0.165772,0.016833,0.429616,0.033776,0.100828,1687.198334,10.777085,0.253174,54.39850097,-7.831385691,3,sunflower and peanuts
,H 0664,0,0.011482,0,0.252424,0.572712,0.144119,1346.427362,40.751099,0.009432,54.52435035,-7.908085126,3,sunflower and peanuts
,D 0900,0,0.017668,0.101192,0.045412,0.01722,0,2669.24741,110.654133,0.794222,54.83592704,-6.304361133,3,sunflower and peanuts
,H 0147,0,0,0,0.454892,0.156972,0.362166,2818.561043,4.0467,0.025969,54.37166799,-7.985359722,3,sunflower and peanuts
,J 3132,0,0.001726,0,0.105837,0.050523,0.356694,2111.798994,45.192751,0.485219,54.22018579,-5.992384108,3,sunflower and peanuts
,H 1760,0,0.244068,0.010748,0.01239,0,0.020092,1052.374113,60.782551,0.699256,54.48816883,-7.738435403,3,sunflower and peanuts
,J 3791,0,0.016569,0,0.595236,0.183414,0.098739,4494.390592,46.219299,0.047745,54.74827118,-5.87313957,3,sunflower and peanuts
,J 3589,0,0.08095,0,0.376688,0.123824,0.241603,1481.886898,45.64005,0.176935,54.73085803,-5.905103489,3,sunflower and peanuts
,J 2023,0,0.041477,0,0.466327,0.249939,0.188152,2074.940021,154.380848,0.054105,54.1420651,-6.164508973,3,sunflower and peanuts
